stop_id,stop_name,latitude,longitude
21038927,Marjane Drissia M6,37.14463206,6.304489469
21045074,Usine de Th,37.18940058,6.376764646
26268470,Sakani,37.19243738,6.408276624
279302232,Rsidence El Hamd,37.14024577,6.352973677
332057865,Groupe Scolaire La Fourmilire,37.16451503,6.238661004
332063285,Ecole De Sidi Abderrahmane,37.15409777,6.206457457
332063371,Morocco Mall,37.16338062,6.203488396
332068934,Marif Extension,37.14637465,6.272466354
332202617,cole Normale Suprieure,37.11809817,6.242945868
334649216,Consulat Espagne,37.17622026,6.275530276
408425279,Lyce Lahlou,37.15559212,6.27842425
409089229,Cit de l'Air,37.15217376,6.242251912
424052421,Lyce Ziriab,37.16566047,6.250620778
424092786,APAEI,37.1647081,6.26932905
424092789,Ibn Chahid,37.1625098,6.268716361
424093251,Consulat de Russie,37.1620964,6.272000614
428467762,Cour d'Appel,37.18161405,6.295908723
428473247,Quartier Hpitaux,37.161206,6.276629277
428474227,March des Fleurs,37.16750282,6.280330718
428476505,Lyce Mohammed V,37.16256303,6.285037682
428476632,Mosque El Hoda,37.15293331,6.288019696
428587309,OFPPT Bahmad,37.17340326,6.304862745
428612131,Derb Milan,37.15476755,6.316799219
428617477,Fort Verte,37.15289432,6.360608617
428625808,Dior Chabi,37.18433794,6.344054385
428625814,Carr. Zaraba,37.18216413,6.338896826
428638620,Rue des Pommes d'Or,37.13089362,6.280999849
428932530,Espace La Pause,37.14489459,6.325299368
429316353,Terminus Daouliz,37.18906597,6.24384687
429316559,Clinique Ben Souda,37.17065277,6.250626263
429317114,OFPPT El Hank,37.18968907,6.255289208
455489570,Ain Sba,37.20279368,6.359225279
455496254,Mosquee Q. Industriel,37.22141602,6.394147607
455500473,Groupe Scolaire Kamel,37.20472217,6.399605782
455500484,Terminus Mansouria,37.20925927,6.410560379
455502211,Groupe Scolaire Elbayda,37.21198923,6.405337935
455730462,Royal Golf Anfa,37.16799645,6.245441658
456479907,Terminus Marif Oliverie,37.17068264,6.261506358
456510091,Derb Foukara,37.14940001,6.292611726
456519354,Bni M'guild,37.15486485,6.29499185
456526084,Sorexi,37.1746164,6.3097508
456526092,cole Le Nid,37.17215748,6.311908713
457853994,Clinique CNSS Bernoussi,37.20048147,6.390105365
457854022,Moutana Ibn Harita,37.19377476,6.383043803
457930600,Caf Gattoss,37.21356603,6.40745636
458736828,Kodia,37.17177512,6.339103061
458736876,Maroc Bureau,37.18649385,6.37267725
458761367,Ct Police Bernoussi,37.19101305,6.373455527
458761729,Oulmess,37.15488629,6.25486647
458761792,Caf Kairaouan,37.14216207,6.229795791
458763059,Douar Mzab,37.15707193,6.408479116
459446230,Droguerie Dakhla,37.12441689,6.22009674
459460393,Commissariat Azhar,37.19120533,6.399441541
459487392,Bournazel,37.15410621,6.338516272
459488695,Rsidences Salma,37.13081043,6.341756925
459703621,H.E.M.,37.10974717,6.279607226
459751806,Caf Grill Antik,37.11149498,6.284962378
459773155,Centre Feminin,37.14443869,6.297638386
459996464,Carrefour,37.1572631,6.257867912
460013217,cole Frres Safa,37.13415191,6.314602182
460013658,Doha,37.17786181,6.375625466
460021258,Oued Nassim,37.09985669,6.23951249
460021271,Mosque Nassim,37.09706734,6.243083947
460028053,Hammam Nekhla,37.15172716,6.249842483
474996258,Clinique Val Anfa,37.17525556,6.249888717
1122269283,Angle Oum Rabia/Naciri,37.14289695,6.235157664
1123540162,Terminus Mosque Ferrara,37.13597648,6.220036161
1129440771,St-Vlodrome,37.17573374,6.256340432
1129440800,Vlodrome,37.17339666,6.257192885
1130779580,Hassan II,37.1671462,6.277016172
1130782943,Mers Sultan,37.17038685,6.284096015
1261487479,Pasteur,37.15784913,6.275504068
1326431614,Lotissement Saklia,37.14733909,6.212035292
1414114263,Derb Kabir,37.15622807,6.303559499
1414545740,IPUT,37.14217509,6.298685902
1414545752,Kora,37.14444967,6.300971729
1414604443,Caf Idouar Ice,37.1134016,6.287966004
1414604460,Renault Qods,37.11450985,6.290865332
1414604473,Pharmacie Omaria,37.11645193,6.298177443
1414604477,cole Bab Andalou,37.11664951,6.294030287
1415476513,Mekanssa,37.11258975,6.31453504
1415476689,Caf Achkid,37.12164189,6.318384149
1415538924,Oilibya (Mohammed VI),37.12776088,6.314247277
1416772849,Hay El Masjid,37.14496418,6.292773385
1416772853,Hay El Masjid,37.14521623,6.292755049
1416772901,Pharmacie Aicha,37.14626412,6.298318082
1540882839,H.E.M.,37.10953532,6.279505551
1625065538,Muse Alsa,37.1630255,6.266790717
1690522679,SGS,37.21422781,6.385920985
1690657889,Arrondissement Police Qods,37.20618812,6.393695192
1690658394,Marjane An Sba,37.18311946,6.363846814
1690658869,Espace La Pause,37.14505764,6.325147729
1693979552,Mosque Lalla Asma,37.15975416,6.355366678
1693979808,Bata,37.17095,6.319938566
1693979871,St. Sinfa,37.1539164,6.375044353
1693979873,Mosque Lalla Asma,37.15952871,6.355462414
1695164414,Groupe Scolaire Anoual,37.15506096,6.318640634
1700506828,Mandarouna,37.1083193,6.283930863
1746196117,cole Bab Andalou,37.11642056,6.294126053
1746196131,Sports Plazza,37.12646459,6.270488097
1746196157,Sports Plazza,37.12648989,6.270263035
1755434121,Hay El Falah,37.14206242,6.345859131
1755434160,Mosque Bab Taouba,37.15269823,6.369272246
1838270432,Mandarouna,37.10834194,6.284281651
1848117149,Caf Haouzia,37.14651183,6.327480614
1848422166,Showroom,37.18878048,6.353929085
1848544441,L'Academie,37.15221218,6.236292341
1849432556,Collge El Youssi,37.13886265,6.358968677
1849432558,Collge El Youssi,37.13898946,6.359105426
1849433210,Arrondissement Salam,37.17312005,6.408377824
1849433213,Arrondissement Salam,37.17315973,6.408686631
1849433331,Bureau Police Anassi,37.17733583,6.397485626
1849433378,Anassi,37.17922721,6.400946452
1849519895,St. Les Assfa,37.15223715,6.381343426
1849822573,Atlanta Sport,37.11911019,6.224335704
1849822677,Riad Oulfa,37.13483805,6.20615301
1849822869,Rond Point Morocco Mall,37.15323463,6.205704823
1849890123,Shell Abdelkrim Elkhattabi,37.17202891,6.254758245
1853230601,Angle Sidi Al Khadir/Boutaleb,37.15474974,6.217698905
1853230690,cole Sidi Abderrahmane,37.15830568,6.205207349
1873948804,Caf Route Andalouss,37.11015793,6.281732416
1932875143,Mosque de Lissasfa - AT,37.11330757,6.234563904
1936060936,Tarik El Khir,37.19780695,6.395055773
1945407440,Carr. Schneider,37.14650003,6.236550441
2126803379,Cit Plateau,37.15117451,6.265610652
2135428292,Prfecture Ain Chock,37.10126835,6.252050075
2135428347,Abattoir,37.13211125,6.345824045
2138248673,Gare Routire 2,37.16026927,6.308724755
2139416372,APAEI,37.16468469,6.269563374
2161256820,Doha,37.17772683,6.375834665
2161260949,Anapec SM,37.16661682,6.351379736
2186506135,Ptisserie La Pense,37.16366928,6.249088604
2186506441,Caf Bouchiki,37.15443834,6.228761626
2186528781,St. Sinfa,37.1540706,6.375117257
2187370052,Hay Idrissia,37.1496054,6.310336459
2187370068,Centre Feminin,37.14469934,6.297566812
2187370276,Clinique Abdelmoumen,37.15330707,6.275157235
2187447291,cole Elanouar,37.10111588,6.241813785
2187447307,Pharmacie Ouaadoudi,37.10479425,6.242986741
2187451040,Dar Lhamra,37.15375612,6.233899357
2207627589,Daouliz,37.18925962,6.243745343
2235605385,Boulevard Bahmad,37.18121049,6.311606995
2235605392,Facults Terminus,37.12605733,6.246672905
2235605394,Ali Yata  ,37.17777161,6.326955706
2235605401,Zenith,37.12060384,6.26008184
2235605408,Bachkou,37.14796496,6.274542064
2235605416,La Rsistance,37.17954113,6.296112475
2235605418,Sidi Abderrahmane,37.1549007,6.234969335
2235605421,Facults,37.126096,6.246679276
2235605426,Gare Oasis,37.1355915,6.27056677
2235605430,Sidi Abderrahmane,37.15488319,6.234935212
2235605431,Anciens Abattoirs,37.17712617,6.318960272
2235605454,Hay Raja,37.16164742,6.347127932
2235605472,Facult de Mdecine,37.15872262,6.275355645
2235605474,Mekka,37.13970943,6.271887218
2235605477,Cit de l'Air,37.15082368,6.239847308
2235605483,Boulevard Bahmad,37.18128319,6.311562937
2235605581,Littoral,37.16480065,6.229812683
2235605616,Marche Central,37.1807006,6.287326864
2235605622,Mohamed Zefzaf,37.16847156,6.383967625
2235605636,Bachkou,37.14796512,6.274587648
2235605643,Hpital Sidi Moumen,37.16194283,6.375644943
2235605648,Zenith,37.12064222,6.260091368
2235605651,Avenue Hassan II,37.16894252,6.27781146
2235605654,Ennassim,37.17129996,6.387591116
2235605660,Hay Hassani,37.15995997,6.231605962
2235605663,Hay Mohammadi,37.1713385,6.330040968
2235605664,Cit de l'Air,37.15076141,6.23982583
2235605681,Littoral,37.16479326,6.229772307
2235605682,Centre de Maintenance,37.16527317,6.379885079
2235605686,Hay Mohammadi,37.17129481,6.329953391
2235605690,Attacharouk,37.15905242,6.369590796
2235605694,Casa Voyageurs,37.17625533,6.306564978
2235605718,La Rsistance,37.17957527,6.296119069
2235605719,Grande Ceinture,37.17654039,6.32343803
2235605753,Abdelmoumen,37.15387022,6.275273054
2235605755,Place des Nations Unies,37.18121128,6.282200108
2235605765,Panoramique,37.12786685,6.270136862
2235605781,Ghandi,37.1516717,6.258014684
2235605791,Panoramique,37.12788399,6.270158273
2235605803,Forces Auxilliaires,37.15960015,6.355526763
2235605807,Sidi Moumen Terminus,37.17364567,6.390560198
2235605809,Hay Hassani,37.15993543,6.23156933
2235605816,Ghandi,37.15169816,6.257985651
2235605817,Hay Raja,37.16159517,6.347086982
2235605822,Avenue Hassan II,37.16894954,6.277779993
2235605828,Ain Diab Plage,37.17192461,6.224146115
2235605835,Mekka,37.13970192,6.271939685
2235605840,Forces Auxilliaires,37.15954613,6.355518149
2238332082,Chouhada,37.17449798,6.329031445
2238332146,Chouhada,37.17455217,6.329100403
2238332160,Casa Voyageurs,37.1762109,6.306535138
2238332192,Place Al Yassir,37.17902098,6.301885642
2238332220,PTT Chouhada,37.17238013,6.329768413
2238332258,Ibn Tachfine,37.16601372,6.333187276
2238332260,Ibn Tachfine,37.16606601,6.33321477
2238332263,Mohamed Diouri,37.1797863,6.291828179
2238332295,Mosque Hay Mohammadi,37.17198533,6.33128456
2238332342,Okba Ibn Nafii,37.1576748,6.36195257
2238332361,Anciens Abattoirs,37.1770762,6.318955575
2238332373,Mohamed Diouri,37.17974868,6.291842607
2238332391,Place Al Yassir,37.17904617,6.301919549
2238332442,Ali Yata  ,37.17771714,6.326962585
2238332460,Grande Ceinture,37.17649618,6.323448385
2238332466,Okba Ibn Nafii,37.15761571,6.361922863
2238405493,Marche Central,37.18067088,6.287285033
2238405596,Place des Nations Unies,37.18120242,6.282242548
2238405601,Place Mohammed V,37.17511279,6.280533489
2238447172,Facult de Mdecine,37.15871028,6.275403246
2238447184,Les Hpitaux,37.16438227,6.276180418
2238447186,Les Hpitaux,37.16436926,6.276219485
2238483722,Gare Oasis,37.13579787,6.270691069
2238483732,Abdelmoumen,37.15388247,6.275319031
2238568797,Gare Casa Sud,37.12188432,6.252793627
2238568803,Gare Casa Sud,37.12184636,6.252782327
2238613690,Beausjour,37.14671274,6.255000618
2238613698,Beausjour,37.14669162,6.255056506
2238635740,Riviera,37.15417001,6.265639552
2238635742,Riviera,37.15420372,6.265639016
2238747184,Rsidence Fady,37.13450513,6.343592768
2242811586,Terminus  Hay Salam,37.12507882,6.231977823
2243125110,Mati Bensaleh,37.15621042,6.291973283
2244969139,El Hank,37.18943641,6.248787986
2245014368,St-Vlodrome,37.17548128,6.256311619
2248652103,Sidi Moumen Terminus,37.17367969,6.390511809
2249521485,Anapec SM,37.16674378,6.351590807
2387487893,Prfecture Ain Chock,37.10124295,6.252245745
2422407726,Renault Qods,37.11489705,6.290867756
2422411466,Htel Ibis,37.11533607,6.263671522
2422411488,Htel Ibis,37.11518183,6.263385732
2428391495,Derb Foukara,37.14962517,6.292506481
2508393233,Ain Diab Plage,37.17190999,6.224103513
2585734365,Ct Police Bernoussi,37.19098703,6.373256644
2676240398,Terminus Riad El Oulfa 3,37.129541,6.202619275
2880504228,Rsidence El Baida Qods,37.20424235,6.402848367
2941139197,Centre de Sant SMJ,37.16551752,6.351056736
2951688088,Mekanssa,37.11236514,6.314663028
2956576622,Spcial Aluminium,37.12294869,6.220874326
2956576658,Jnane louz (Terminus),37.11074599,6.207326116
3049255889,Chefchaouni,37.21165485,6.381075779
3049351940,Noor City,37.16154949,6.363810064
3284828969,Caf Kyoto,37.11941944,6.300090046
3284898224,Clinique CNSS Inara,37.12097268,6.302800465
3424903239,Espace Sportif Yasmina,37.11956288,6.320657625
3484336100,Abdellah Ben Cherif,37.14827545,6.243492301
3484336101,Abdellah Ben Cherif,37.14825171,6.243475061
3484336121,Anfa Clubs,37.1432583,6.250327274
3484336128,Place Financire,37.14431158,6.24296439
3484336159,Anfa Park,37.14152669,6.246198771
3484336164,Anfa Park,37.14148073,6.246169748
3484336168,Anfa Clubs,37.14325744,6.250354674
3484336170,Place Financire,37.14429592,6.243005166
3519820897,Rsidence El Hadika,37.19129539,6.364404859
3525295871,Hmara,37.16111039,6.346342379
3528650437,Groupe 3 Hay Moulay Rachid,37.14887593,6.352705867
3552376725,Derb Milan,37.1546225,6.317042678
3715436035,Rsidences Alassil,37.17967359,6.334566157
3769564809,Ouad Dahab,37.12178288,6.324743551
3769570872,Mosque Ain Choc,37.1355202,6.299627975
3827124148,Caf Latino,37.11772107,6.312928479
3827124150,RTM in Choc,37.11946394,6.315716225
3827124151,Caf Achkid,37.12144186,6.31848431
3827124153,Jamila,37.12292875,6.3186299
3827124155,Caf Souria,37.12771509,6.333124129
3827124156,Caf Souria,37.12784779,6.332959777
3827125857,Stade Tissima,37.12563033,6.334958533
3827125884,Lydec Dar Touzani,37.13075809,6.311550795
3827125887,Cinma Sahra,37.13264907,6.300410925
3827125889,March Ain Choc,37.12826043,6.302339192
3827126009,Caf 2000,37.12212908,6.305510703
3827126010,Belrhazidecor,37.11943217,6.306543421
3827126012,Kora Sebata,37.13442693,6.32782206
3827126014,4me Arrondissement,37.13926014,6.325190458
3827126018,Lyce Alidrissi,37.13913216,6.313440509
3827126019,Carr. Benmsick,37.14003142,6.318818589
3827126022,Zone Urbaine 16 Ben Msick,37.13656745,6.311281999
3827126023,Lyce Ibn Hazem,37.1463328,6.32068754
3843048973,Terminus Tacharouk,37.15446304,6.371401225
3843048974,Terminus Tacharouk,37.15459349,6.371208203
3843048975,Facult de Ben M'Sick,37.15006979,6.352261059
3843048976,Facult de Ben M'Sick,37.1502547,6.353154224
3843048984,Hay Chifa,37.15593448,6.313547405
3843048985,Hay Chifa,37.156032,6.313079289
3843048995,Pharmacie Andalouss,37.13598933,6.296620278
3843048998,Bin Lmdoun,37.13873696,6.298857113
3843049008,Hay Lmasjid  2,37.144488,6.295488499
3843049012,Clinique Dar Salam,37.14458083,6.282072424
3843049013,Clinique Dar Salam,37.14435809,6.282060259
3843049014,Villa Des Lilas,37.14144168,6.271892355
3843049020,Cit de l'Air,37.15197144,6.242059569
3843049026,Ain Diab,37.1767095,6.227908547
3843049027,Peugeot Rapide,37.16114505,6.232315389
3843049028,Lyce Ibn Tofail,37.16954261,6.262573727
3843049040,BD. Houphout Boigny,37.18503578,6.285369929
3843049043,Place Marchal(Terminus),37.18038909,6.280897986
3843049046,Colis Postaux,37.18297018,6.291007619
3843049050,Souk Salam,37.16960376,6.343858961
3843049055,Lalla Assma 1,37.16304058,6.353448656
3843069858,Pharmacie Ibn Zohr,37.14055627,6.327562624
3843069866,Belrhazidecor,37.11926055,6.306416658
3843069867,Caf Mesk Lil,37.12554529,6.304836223
3843069868,Caf Mesk Lil,37.12534428,6.304660832
3843069879,Renault Moulay Youssef,37.18609481,6.269032989
3946728162,Colis Postaux,37.18322263,6.291060004
3976720779,Rond-Point De Dakar,37.17559901,6.296207984
4000749319,Acima Ibn Tachfine,37.16974336,6.32485495
4107749400,Mosque Afghanistan,37.15562816,6.231082367
4156548980,CF El Hank,37.1905617,6.251860529
4205738939,Commune Sidi Belyout,37.18132878,6.27471273
4208136041,March Ain Choc,37.12848179,6.302388107
4211146981,Morgue Ain Chok,37.13746548,6.306312262
4213171033,Complexe Mohammed V,37.16572856,6.256622735
4213171046,Terminus Kasbat Al Amine,37.11206889,6.221010081
4214020105,English-School,37.20424605,6.361568243
4215582514,Hay Mbarka,37.20499376,6.388155564
4220503316,Watania Assurance,37.13244211,6.328266486
4225391864,Kodia,37.17167014,6.339202359
4227487109,Cinma Rif,37.18286497,6.284292507
4229177293,cole Le Pont,37.12891835,6.273915876
4244309716,Derb Ghalef  ,37.15322826,6.26998994
4244309717,Derb Ghalef  ,37.15325182,6.270010796
4305395293,Gare Routire Ouled Ziane,37.15867381,6.314017596
4338785049,Infirmier Bouafi,37.13232709,6.31800656
4360005391,2 Mars,37.15242132,6.287617599
4467374289,Ouad Dahab,37.1216264,6.324800313
4580339909,Moutana Ibn Harita,37.19363273,6.382777273
4584731726,Centre Sant Tacha,37.15761791,6.361772713
4591181359,Place Mohammed V,37.17508422,6.280578514
4591435479,Attacharouk,37.15909557,6.369583682
4592227165,Centre de Maintenance,37.16523856,6.379907855
4592227166,Ennassim,37.17127971,6.387609788
4592227167,Hpital Sidi Moumen,37.16190397,6.375665551
4592227168,Mohamed Zefzaf,37.16844015,6.383988778
4760867683,Tribunal in Sba,37.18709421,6.363006506
4986938779,Mosque Doha,37.15339789,6.266151498
4986938780,Mosque Doha,37.153509,6.265948765
4986977260,Usine de Th,37.1895999,6.376703877
4986977973,Rsidence Al Otour,37.18484612,6.387153983
4986996083,Brasseries du Maroc,37.18228577,6.38341494
4986999392,Carr. raib,37.16757099,6.360525202
4986999393,Mosque Abir,37.1681585,6.357123198
4987001404,Adarissa,37.16532034,6.352870714
4987001405,Adarissa,37.16545639,6.352750441
4987006317,Caf Britchia,37.16154058,6.348865136
4987010235,Ifiam,37.15695549,6.342183882
4987023266,Oriflam Joulan,37.13252027,6.329268392
4987023267,Oriflam Joulan,37.13269579,6.329418165
4987027260,Tribunal Administratif,37.14292587,6.330741242
4987027261,Kora Sebata,37.13454016,6.327958299
4987031823,Complexe K. Zebdi,37.13925759,6.32583434
4987050039,Caf Charles Dgo,37.12477215,6.329140835
4987050040,Caf Charles Dgo,37.12492025,6.329039421
4987053806,Caf Arabia,37.1197581,6.321959986
4987053807,Caf Arabia,37.1196009,6.322045359
4987058397,Stade Tissima,37.12588559,6.335059282
4987077824,Rsidence Bouaarfa,37.18728096,6.265388864
4987087174,Maison des Jeunes Zerktouni,37.18633829,6.262632917
4987087175,Maison des Jeunes Zerktouni,37.18638993,6.262925779
4987087177,Parc le Lac,37.18928166,6.265499943
4987092872,Prfecture Police An Chock,37.12183408,6.305495015
4987092873,Prfecture Police An Chock,37.12161871,6.305568517
4987950245,Pharmacie Diouri,37.15379435,6.298054974
4987950246,Pharmacie Diouri,37.15361702,6.298186692
4987950247,Place Sraghna,37.15300998,6.298371096
4987950248,Place Sraghna,37.15260399,6.298176045
4988181785,Terminus Sidi Marouf,37.08370371,6.246878449
5004949327,Derb Bouchentouf,37.15202018,6.295699815
5005720475,Terminus Lissasfa ,37.10972821,6.231335697
5005770116,Terminus Maarif,37.16679746,6.261391855
5005981354,Place Concorde,37.18251675,6.278449612
5005991349,ANCFCC Rachidi,37.17628382,6.279134933
5006003768,CIMR,37.16600757,6.276808428
5006003769,CIMR,37.16604769,6.276589106
5006013438,Tariq Bno Zyad,37.15962518,6.275725857
5006018355,Caf La Rotonde,37.16849366,6.277741406
5006028907,CM Abdelmoumen,37.1622333,6.275769871
5006028909,Caf Flay,37.16467236,6.276152617
5006050038,Facult Mdecine,37.15986278,6.27895109
5006051428,Centre Addiction,37.16027393,6.28170121
5007203884,Pasteur,37.15780356,6.275245576
5009768968,Lyce Ghazali,37.14559813,6.294985177
5009768969,Lyce Ghazali,37.14538673,6.295016991
5009779796,Pharmacie Aicha,37.14600183,6.298325801
5009822268,Place de Sidi Marouf,37.14768063,6.295212922
5010088048,cole Normale Suprieure,37.11839665,6.242459837
5010095975,Facults - Route d'El Jadida,37.12155648,6.247822848
5011098749,Muse Alsa,37.16271292,6.26676114
5012138012,Place de la Victoire,37.17377145,6.29100287
5022567358,BIM Roudani,37.17002643,6.27146145
5022567359,BIM Roudani,37.17015716,6.271325315
5022604119,Rond Point Mermoz,37.17470109,6.274726604
5022604120,Eaux et Forts,37.17323585,6.273915786
5022636124,Htel Mouahidin,37.17947016,6.278051342
5024337722,BD. Houphout Boigny,37.18528849,6.285226037
5025784658,Al Wattassine,37.13283526,6.203517035
5026248286,Commune Sidi Belyout,37.18116338,6.274734508
5026328996,Angle Dakhla/Tichka,37.11293701,6.299265251
5026765064,Caf Grill Antik,37.11163101,6.284792825
5026765065,Caf Idouar Ice,37.11318156,6.288048821
5026770802,Caf Route Andalouss,37.1100051,6.281773738
5026830842,Rsidence B. Elbaida,37.20628476,6.406728839
5026839605,Pharmacie Place Mekouar,37.20113725,6.362861096
5026842287,Pizzeria Osteria,37.20153367,6.363309053
5027061569,PTT Roudani,37.15264627,6.258876087
5027061570,PTT Roudani,37.15282938,6.258615047
5027061571,Oulmess,37.15542269,6.254897902
5027180080,Hay El Falah,37.14201287,6.345503922
5029862480,Complexe Mohammed V,37.16802768,6.253244585
5029883682,Vlodrome,37.17321857,6.257126716
5029883683,Jardin Val d'Anfa,37.17594958,6.249965449
5029883684,Clinique Val Anfa,37.17568163,6.249452701
5029883710,Rsidence Rio,37.17708379,6.260027796
5031104857,Commissariat Moulay Chrif,37.18094838,6.327091979
5031104858,Carrires Centrales,37.17891386,6.33170369
5032036981,Marjane An Sba,37.18300055,6.363728494
5032077682,Terminus Mosque Ferrara,37.13619238,6.219946979
5032109182,C.A. Tensift,37.1333841,6.220971943
5032217463,Hay Hassani,37.15515092,6.227758464
5032520810,Tariq,37.19695943,6.378187676
5033654432,Collge Meriem Fihria,37.14929129,6.300866964
5033681413,Mosque Sonna,37.14364714,6.291390111
5033681414,Lyce Moulay Abdellah,37.14434506,6.286424771
5033681415,Lyce Moulay Abdellah,37.14453079,6.286505756
5033697048,Mosque El Hoda,37.15291228,6.28836218
5033697049,Rachad,37.14957305,6.290913181
5033697050,Rachad,37.14948116,6.290702085
5033704929,Kora,37.14470005,6.301026371
5033735918,Marjane Drissia,37.14556562,6.305067496
5033735919,Marjane Drissia,37.145843,6.305149986
5033737024,Hay Idrissia,37.14934841,6.310399752
5033737025,Bd De Gaza,37.15229494,6.314164289
5033737026,Bd De Gaza,37.15250176,6.314009204
5033743741,Souk Layoun,37.14784103,6.303980424
5033743742,Souk Layoun,37.14780628,6.303732259
5033764215,Marjane Drissia M6,37.14430909,6.304259038
5033770310,Dar Touzani Mohammed VI,37.1339219,6.309112031
5033770311,Dar Touzani Mohammed VI,37.13371954,6.308862117
5033781761,Morgue Ain Chok,37.13718543,6.306123113
5033812377,Lydec Dar Touzani,37.13095136,6.311727568
5033821624,Oilibya(Mohammed VI),37.12801396,6.314580081
5033836129,Mosque Hosna Mohammed VI,37.12498268,6.316385306
5033836130,Mosque Hosna (Boulevard Qods),37.12472267,6.315018422
5033836131,Mosque Hosna (Boulevard Qods),37.12484668,6.31493872
5033836132,Mosque Hosna Mohammed VI,37.1252512,6.316678249
5033848857,Groupe Scolaire Anoual,37.15482258,6.318491741
5033856769,Fourrire BM,37.15068129,6.319679996
5033856770,Fourrire BM,37.15063908,6.319408826
5033861641,Lyce Ibn Hazem,37.14619176,6.320519939
5033876633,Cinma Othmania,37.1429597,6.322725115
5033876634,Cinma Othmania,37.14313741,6.322566869
5033876635,Caf Haouzia,37.14677056,6.32739933
5033888802,Caserne Forces Auxliares,37.14968287,6.333040062
5033899106,Hay Sadri,37.15527452,6.33997559
5033931236,Richbond (GC),37.17467413,6.349403612
5033954238,Terrain Larbi Zaouli,37.18438021,6.350105279
5033995306,Rahal Traiteur,37.1807617,6.350147507
5034071119,Coca Cola,37.1881458,6.387886396
5034071120,Coca Cola,37.18794162,6.387847582
5034098663,Rsidence Hliwa,37.19033217,6.356867909
5034121972,Renault Ain Sba,37.19164041,6.359352282
5034135092,Bricoma,37.19082682,6.367493425
5034135093,Bricoma,37.19051606,6.367603186
5034138497,Vantec,37.19007909,6.370831487
5034138498,Vantec,37.19026547,6.370890079
5034265383,Souk Aallek,37.19709498,6.391980922
5034265384,Tarik El Khir,37.19794078,6.395267549
5034265385,Mosque d'Algrie,37.19981125,6.394090583
5034265386,Mosque d'Algrie A,37.2002926,6.394082758
5034265387,Mosque d'Algrie A,37.20008867,6.394222783
5034419568,OFPPT RM,37.10096411,6.268112318
5034419569,OFPPT RM,37.10089401,6.26780792
5034419570,ISCAE,37.10563079,6.266642403
5034419571,ISCAE,37.10547684,6.266379897
5034419576,Douar Latour,37.11221013,6.264593853
5034419577,Douar Latour,37.1122677,6.264316418
5034528783,Douar Khouadra,37.12052804,6.270631747
5034528784,Douar Khouadra,37.12079359,6.270610876
5034552209,Gare L'Oasis,37.13608297,6.270890932
5034552210,Gare L'Oasis,37.13607384,6.270619455
5034558014,Mosque Bachkou,37.14007551,6.271853409
5034558015,Mosque Bachkou,37.14000305,6.272134959
5034558016,Rond Point Bachkou,37.14376166,6.277609431
5034558017,Rond Point Bachkou,37.14390905,6.27734286
5034587752,Derb Bouchentouf,37.15187827,6.295884436
5034837116,Bacha. Al Azhar,37.18670904,6.402268133
5034837117,Primarios,37.18572458,6.400213978
5034837118,Primarios,37.18550969,6.400240128
5034837119,St. Tecna,37.18605916,6.395333927
5034837120,St. Tecna,37.18587537,6.395096212
5034844718,Rsidence El Baida,37.18083319,6.393030464
5034844719,Rsidence El Baida,37.18087693,6.392849764
5034854583,Projet Salam,37.17684402,6.404040707
5034854592,Salam 2,37.17011308,6.412285618
5034854593,Salam 2,37.17028698,6.412368651
5037010298,Petrom (RS),37.15084977,6.388203314
5037010299,Petrom (RS),37.15060748,6.388198548
5037035406,Centre Sant Tacha,37.15782614,6.361839763
5037058611,St. Les Assfa,37.15205957,6.381272909
5039597524,Accs Pl Sindibad,37.16903021,6.216712715
5039597525,Accs Pl Sindibad,37.16913294,6.216444003
5039603046,Ain Diab,37.17691303,6.227763015
5039611823,Station Total (Har),37.129888,6.324800539
5039611824,Station Total (Har),37.12963071,6.32489778
5039642254,BMCE Tah,37.1140091,6.318582673
5039642255,BMCE Tah,37.11427318,6.318446335
5039648119,Sanitub,37.11540151,6.321261011
5039648120,Sanitub,37.11568717,6.321154462
5039653070,Caf 2000,37.1221282,6.305748738
5040025165,Terminus Hay Salam,37.12489106,6.231769336
5040025193,Souk Salam,37.16926094,6.343921771
5040047778,Caf Kyoto,37.11965249,6.299945363
5040047779,Clinique CNSS Inara,37.1207766,6.302849368
5040052835,Lydec 6 Nov,37.13378331,6.31167197
5040054086,Hay Lmasjid  2,37.14474955,6.295474484
5040055711,cole Ouadghiri,37.14625392,6.268641765
5040055712,cole Ouadghiri,37.14599629,6.268717396
5040056462,Marif Extension,37.14659696,6.272505007
5040064788,Bin Lmdoun,37.13879092,6.299042276
5040066032,Cour d'Appel,37.18159735,6.295665041
5040070981,Dar LMohami,37.17974269,6.295787231
5040070982,Rond-Point De Dakar,37.17543815,6.29603111
5040070983,Dar LMohami,37.17975346,6.295591065
5040073208,Peugeot Rapide,37.16132392,6.232046217
5040089583,Casa port (Sidi Belyout),37.18498167,6.286994039
5040089584,Casa port (Sidi Belyout),37.18513199,6.287121305
5041248109,OCP,37.13475852,6.258831108
5041248110,OCP,37.13472261,6.258459697
5041264276,Rsidence Nadia,37.15580218,6.260889649
5041264277,Rsidence Nadia,37.1559617,6.260647767
5041488121,Rsidence Elmouahidin,37.17221334,6.347863239
5041488122,Rsidence Elmouahidin,37.17237363,6.34777021
5041491374,Mosque Elkaoutar,37.15564028,6.305136965
5041491375,Mosque Elkaoutar,37.1555948,6.30496472
5041493339,Derb Kabir,37.15594152,6.303528478
5041498324,Pharmacie Andalouss,37.13583189,6.296829188
5041500474,Caf Autrement,37.11768355,6.309766644
5041500475,Caf Autrement,37.11790335,6.309855226
5041510821,Bloc Cit Djemaa,37.12939642,6.320148929
5041512632,Caf Latino,37.11758403,6.313052663
5041514238,Jardin Bordeaux,37.18524834,6.269565651
5041526772,Orphelinat in Choc,37.13081112,6.304723504
5041543036,Garage Allal  ,37.16111407,6.299891862
5041543037,Garage Allal  ,37.16097799,6.299613073
5041546508,Grande Poste,37.17843907,6.282584418
5041553746,Hassan II,37.16709738,6.277206182
5041570432,Mati Ben Saleh,37.15628767,6.291449397
5041570433,Rgie de Tabac,37.15971041,6.289900005
5041942445,Hpital 20 aout,37.15774728,6.282935697
5041943656,Cafe Challoukh,37.1397257,6.338478815
5041943657,Cafe Challoukh,37.13999612,6.338401512
5041945820,Lyce Alidrissi,37.13938195,6.313443319
5041972236,Carr. Benmsick,37.14024207,6.318684593
5041978445,RTM in Choc,37.11963769,6.315591631
5041983744,Lyce Ibn Tofail,37.16955676,6.262435238
5041984530,IPUT,37.14208173,6.298842964
5041989936,Zone Urbaine 16 Ben Msick,37.13660947,6.311045481
5041994387,Drijat,37.11780122,6.321590658
5041998494,Hay Tissir,37.1565861,6.318760828
5041998495,Hay Tissir,37.1569389,6.318616177
5045832751,Watania Assurance,37.13223241,6.328372456
5045854785,Fiat Abdelmoumen,37.1550461,6.275497624
5045854786,Fiat Abdelmoumen,37.15498487,6.275179267
5046150621,Clinique Abdelmoumen,37.15332741,6.275436313
5047379636,Mosque Hay Farah,37.15535504,6.310290975
5047379637,Mosque Hay Farah,37.15568057,6.310227494
5047422419,Gare Routire,37.15882623,6.308768259
5047422420,Gare Routire,37.15876232,6.308660142
5050753023,ISTL,37.19314846,6.346469336
5050753024,BMCE Tariq,37.1955924,6.375234285
5050753025,Richbond (MI),37.19198556,6.348537075
5050753026,Richbond (MI),37.19182024,6.348745144
5050753029,Centre Qods,37.19961238,6.376101718
5050753035,Tribunal in Sba,37.18716979,6.363127571
5050753040,Hammam Bab Salam,37.18781168,6.35860823
5050753043,Caf Brochette,37.21370451,6.367123764
5050753047,Plage Raha,37.20823045,6.351338166
5050753048,Mosque Elwahda,37.1973303,6.349367824
5050753057,Beaulieu,37.19274374,6.35598867
5050753061,March Vert,37.19367765,6.355915532
5050753064,Zoo,37.19260676,6.364537869
5050753065,Gare d'Ain Seba,37.19653072,6.369378553
5050753066,Piscine Oceanic,37.20930616,6.358120648
5050753067,Restaurant Tizi Oussli,37.1946631,6.356514666
5050753071,Pharmacie Des Parcs,37.20050096,6.353484698
5050753072,Angle Eucaliptus/Plage,37.20299142,6.355499678
5050753074,Rsidence Ain Sba,37.19609944,6.357776785
5050753077,Somaver,37.2042425,6.357433071
5051125360,Beaulieu,37.19255503,6.355984375
5051218888,Gare d'Ain Seba,37.19631665,6.369602937
5051314780,Tariq,37.19717236,6.378156037
5051329578,Bernoussi,37.20336209,6.388754864
5051788512,Arrondissement Police Qods,37.20601407,6.393769077
5051801913,Protection Civile (Qods),37.21256672,6.402857712
5051801914,Protection Civile (Qods),37.21278185,6.402673446
5051842457,Centre Bus Bernoussi,37.20757002,6.39606637
5051842458,Centre Bus Bernoussi,37.20778652,6.395990193
5051842459,Association Bayti,37.20982991,6.398854027
5051842460,Association Bayti,37.20960564,6.398929394
5051842462,Africana,37.21097808,6.403390997
5051842463,Africana,37.21092351,6.403292325
5051859611,Maison Aliman,37.21220828,6.410139294
5051894521,Fiori,37.19440522,6.366735773
5051894522,Fiori,37.19421231,6.366888303
5051902913,Centre Qods,37.19943565,6.376198628
5051902914,Ingelec Route de Rabat,37.19847803,6.374330105
5051902915,Ingelec Route de Rabat,37.19861093,6.374247096
5051905623,cole El Jazira,37.19862266,6.360649679
5051912041,Hammam Bab Salam,37.18766573,6.35873373
5051917110,Rsidence Al Fadl,37.18657023,6.361133424
5051917111,Rsidence Al Fadl,37.18680558,6.360992823
5054907708,Mosque El Fath,37.12423519,6.226445082
5054907709,Pharmacie Riad Oulfa,37.13714449,6.209207711
5054907712,Caf El Qods,37.13785156,6.221006241
5054907713,cole Elbennay,37.1347759,6.224236889
5054907716,Collge Moulouya,37.13968276,6.216561699
5054907718,cole Elibrahimi,37.13740553,6.223817358
5054907924,OFPPT Essafa,37.13282159,6.214125253
5054907927,Attijari Dra,37.14081413,6.220700869
5054907928,Lyce Fechtali,37.1400394,6.226273182
5054907930,Mosque Riad Oulfa,37.13878253,6.211319558
5054907932,Spcial Aluminium,37.12301909,6.221038637
5054907933,cole Al Ajial,37.13888661,6.223853668
5054943343,Collge Ibn Abbad,37.12552926,6.219811948
5054952750,Hay Zoubir,37.11991399,6.222914372
5054955944,Collge Ibn Abbad,37.12548904,6.219578355
5054958834,Rond Point Chahdia,37.12678829,6.224622854
5054959427,Pharmacie Al Atfal,37.13288832,6.216186135
5054959428,Pharmacie Al Atfal,37.13294662,6.216350307
5054965044,Commissariat Riad Oulfa,37.1401689,6.213054487
5054965045,Hpital Hay Hassani,37.14022158,6.218381738
5054965046,Hpital Hay Hassani,37.1401005,6.218584842
5054966005,Ancien Terminus L020,37.1378352,6.214896419
5054971299,Pharmacie Tam,37.13339446,6.227356155
5054971300,Pharmacie Tam,37.13352304,6.227316074
5054971301,Oulfa,37.13181484,6.221370798
5054971302,Oulfa,37.13173954,6.221170072
5054978220,Lyce Fechtali,37.13982801,6.226420162
5054979621,cole Al Ajial,37.13861012,6.223947621
5054981418,OFPPT Essafa,37.13299085,6.213977987
5054981419,Wafa Cash,37.13054138,6.208909528
5054981420,Wafa Cash,37.13033531,6.209048708
5056338579,PTT Chouhada,37.17235961,6.329607929
5056338580,Kissariat Hay Mohammadi,37.17081193,6.333730474
5056374531,Casa Voyageurs,37.17466889,6.305874356
5056374532,Caserne in Borja,37.17247014,6.307361521
5056374533,Caserne in Borja,37.17225351,6.307334858
5056384741,cole Le Nid,37.17189685,6.311884332
5056454215,Atlas Copco,37.17433604,6.324314816
5056454216,Atlas Copco,37.17439256,6.32447313
5056516713,Rsidence Alassil (OU),37.18260246,6.334068738
5056545807,Foum Lahcen,37.17793122,6.328521914
5056631313,Acima Ibn Tachfine,37.16991828,6.324937194
5056651148,Comanav,37.18264332,6.296423948
5056651149,Comanav,37.18234727,6.296305156
5056675767,Acima (Zola),37.18094094,6.303136811
5061089713,M'salla Ain Chok,37.12838781,6.299973555
5062176974,Pst. Pointage,37.19976047,6.385549357
5064503732,PTT Bir Anzarane,37.16422995,6.265296214
5064503733,PTT Bir Anzarane,37.16408185,6.265040199
5064895972,Stade Hay Hassani,37.1536961,6.225033974
5064895977,ISTA Afghanistan,37.15117441,6.223069744
5064895978,Hay El Baraka,37.15028332,6.22134994
5066683071,Sidi Al Khadir,37.15175033,6.221518
5066690255,Police Boutaleb,37.15649577,6.220823119
5066690256,Police Boutaleb,37.1563332,6.220946142
5066693592,Derb Jamila,37.15399355,6.220928694
5066751004,ISTA Hay Hassani,37.14990116,6.221097169
5066763135,Angle Sidi Al Khadir/Boutaleb,37.15455042,6.217950686
5067627500,Gare Ennassim,37.09528618,6.245994277
5067627667,Commissariat Nassim,37.09938453,6.246143302
5067639206,Centre Cul. Socio.,37.10457231,6.25327916
5067639207,Centre Cul. Socio.,37.10449588,6.253439728
5067646302,SGS,37.21405321,6.385780711
5067646303,Attacha,37.21631764,6.387062832
5067646304,Attacha,37.21646936,6.386931857
5071716914,Sad Lkhir,37.14769441,6.222339349
5071716915,Sad Lkhir,37.14767177,6.222128519
5071733359,Cit Police Ibn Sina,37.14854265,6.224525048
5071754638,Caf Tafoukt,37.15343017,6.227034883
5071797269,Hay Hassani T2,37.15258466,6.223440043
5071835899,Caf Casa Paris,37.12961319,6.217663379
5071930367,Lyce Lyautey,37.18164254,6.269151954
5071930368,Lyce Lyautey,37.18144514,6.269203194
5071944277,Pharmacie Bordeaux,37.18403168,6.271631569
5071967697,Rsidence Shemsi,37.1779847,6.264572902
5071967698,Rsidence Shemsi,37.17821667,6.264755102
5072052641,Lydec 6 Nov,37.13359765,6.311728544
5072117148,Institut Sainte Dominique,37.15939789,6.242736996
5072118123,cole La Prairie,37.16172684,6.24681599
5072134354,cole Superior Psy.,37.15728689,6.239626763
5072143739,cole Superior Psy.,37.15742316,6.239547584
5072143744,Handassa,37.1563951,6.238039874
5072169250,Marjane Hay Hassani,37.14798515,6.228403009
5072231850,Complexe Mohammed V,37.16833849,6.253283137
5072298318,Terminus Maarif,37.16712656,6.261733395
5073124816,Lissasfa,37.1098814,6.230930467
5073198564,4me Arrondissement,37.13924947,6.324850946
5073291775,Lalla Assma 1,37.16313214,6.353610287
5073349604,Lalla Assma 2,37.16352814,6.352882108
5073557202,Groupe 3 - Sidi Moumen Jdid,37.16298018,6.349420494
5074848661,Taxi El Jadida,37.16265821,6.265141646
5074848663,Rsidence El Hossaini,37.16145108,6.263728341
5074894941,Cit Plateau,37.15126452,6.265405779
5074972706,Ligue Arabe,37.17256358,6.279526034
5074972707,Ligue Arabe,37.17262274,6.279321509
5075406434,Pharmacie Taha,37.15998914,6.331468558
5075406435,Pharmacie Taha,37.16017965,6.331730588
5075925093,Angle Anfa/Zerktouni,37.17676241,6.265286117
5075925094,Angle Anfa/Zerktouni,37.17686205,6.265559348
5075925099,Lyce Chaouki,37.17018195,6.272335249
5075925100,Twin Centre,37.17270972,6.268945006
5075925101,Twin Centre,37.17253543,6.268780513
5076008585,Souk Bourgogne,37.18578973,6.259454684
5076039070,Restaurant Nid d'Hirondelles,37.18446895,6.263242636
5076830783,Terminus T1 Sidi Moumen,37.17577218,6.392876156
5076830784,Terminus T1 Sidi Moumen,37.17577986,6.392625425
5078277366,Caf Azhar,37.12251393,6.218000129
5078277368,Dir. Tch. R. Casa,37.11989127,6.215656772
5078277369,Farah Salam,37.11848583,6.213176382
5078610856,Ecole De Sidi Abderrahmane,37.15397716,6.20618697
5078621729,Rond Point Morocco Mall,37.15299925,6.205797545
5078644053,cole Sidi Abderrahmane,37.15826951,6.205135303
5079001821,Pharmacie Fedan Lkhir,37.21216028,6.402466429
5079001822,Pharmacie Fedan Lkhir,37.21222408,6.402566821
5079281467,Tariq Bno Zyad,37.15974701,6.275688779
5079316605,Pasteur,37.15785294,6.276618199
5079338779,Sel Blanc,37.14595351,6.291028894
5079414939,Souk Bourgogne,37.18555218,6.259522299
5079520279,Mosque de Lissasfa - Route d'El Jadida,37.11298043,6.235584697
5079520280,Mosque de Lissasfa - Route d'El Jadida,37.11314934,6.235430216
5079522929,Mosque de Lissasfa - AT,37.11338087,6.234762085
5079739997,Les Arnes,37.17539575,6.263202775
5079740007,Lyce Wallada,37.17376012,6.259736409
5079740008,Lyce Wallada,37.17340372,6.259603527
5079778947,Clinique Romandie,37.16755812,6.251874154
5079781620,OFPPT Anfa,37.16885798,6.252272689
5079786057,Lyce Ziriab,37.16554987,6.250780111
5079791361,Ptisserie La Pense,37.16378611,6.248930118
5079875650,Oued Al Makhazine,37.18054012,6.276947783
5079907787,Jamila,37.12267907,6.318837818
5081003940,Tribunal,37.13635589,6.237611689
5081003941,Tribunal,37.13636385,6.237756528
5081003949,Polyclinique CNSS Rabia,37.1495454,6.236907891
5081003950,Polyclinique CNSS Rabia,37.14975011,6.2366221
5081042622,Carr. Schneider,37.14634098,6.236307012
5081100556,Rsidences Firdaouss,37.14024913,6.236126363
5081137002,Groupe Scolaire La Fourmilire,37.16465504,6.238432894
5081142967,Royal Golf Anfa,37.16786331,6.245608513
5081158298,Clinique Ben Souda,37.1708153,6.250545716
5081183100,Messagerie CTM,37.15097344,6.248456922
5081248081,Clinique Sara,37.15313958,6.237115285
5081248085,Clinique Sara,37.15291324,6.237107336
5081378555,Pharmacie Carnot,37.17992809,6.314835487
5081426299,glise  Zerktouni,37.16771709,6.284561185
5081426300,glise  Zerktouni,37.16792918,6.28439071
5081442267,March des Fleurs,37.16768692,6.280413757
5081602679,Espace Les Palmiers,37.16672097,6.274073071
5081602680,U.N.F.M.,37.16683277,6.271209173
5081602681,U.N.F.M.,37.1670539,6.271217015
5081677395,Hay El Massira,37.14650169,6.347810793
5081677396,Hay El Massira,37.1466284,6.34741915
5081732232,Angle Sahraoui/Joudar,37.14972116,6.365372956
5081732233,Angle Sahraoui/Joudar,37.149554,6.365480431
5081736551,cole Abdelkarim Al Khatabi,37.15074222,6.363938768
5081736552,cole Abdelkarim Al Khatabi,37.15053624,6.363874006
5081741627,BIM Moulay Rachid,37.15268327,6.362347577
5081741628,BIM Moulay Rachid,37.15256936,6.362167033
5081756582,Fort Verte,37.1531461,6.360460685
5081756583,Groupe 4 Moulay Rachid,37.15240636,6.356741003
5081773956,Pharmacie Dokkala,37.1426046,6.356798133
5081781828,Cinma El Falah,37.14372481,6.344623894
5081781829,Cinma El Falah,37.14355793,6.34440385
5081797763,Pharmacie Dokkala,37.14283252,6.35673605
5081805192,Rsidence Fady,37.13430621,6.343373148
5081812209,Caf Planete House,37.13546026,6.346703002
5081812210,Caf Planete House,37.1356475,6.346554779
5081822684,Rsidence El Hamd,37.14002171,6.353137559
5081825500,Rsidences Salma,37.13069174,6.342057784
5081876414,Institut Tarik Ibn Ziad,37.11533194,6.323463603
5081876415,Institut Tarik Ibn Ziad,37.11546832,6.323590269
5081886621,Drijat,37.11825596,6.321520333
5081905646,Espace Kadissia,37.117056,6.323967433
5081905647,Espace Kadissia,37.1168851,6.324112718
5081905654,cole Driss Lahrizi,37.11840642,6.326219066
5081905655,cole Driss Lahrizi,37.11862784,6.326037884
5081908780,OFPPT Lahrizi,37.1202068,6.32860513
5081908781,OFPPT Lahrizi,37.12029784,6.328426952
5081959517,Morocco Mall,37.16347137,6.203260863
5081961377,cole La Prairie,37.16228172,6.247255198
5081971027,Lfarfara,37.12151979,6.195823995
5081971028,Lfarfara,37.12135583,6.195962078
5109328001,Mosque Salmia,37.11916767,6.34243005
5109328002,Mosque Salmia,37.11895673,6.342334731
5109328005,Caf Basma,37.11953885,6.340901005
5109328006,Caf Basma,37.11933774,6.340905849
5109336973,Pharmacie Abdelhadi,37.13796611,6.348495707
5109336974,Pharmacie Abdelhadi,37.13806473,6.348782178
5316750811,Attadamone,37.18983242,6.403031271
5316750812,Al Azhar,37.19018317,6.400040947
5316881639,Al Yassir,37.1796586,6.301004556
5316881640,Hpital Mohammed V,37.17805049,6.343780464
5316881641,Hpital Mohammed V,37.17804209,6.343901708
5316881642,Machroua,37.17411153,6.34045251
5316881643,Machroua,37.17412571,6.340602311
5316881644,Dar Laman,37.18072736,6.341354716
5316881666,Cinma Salam,37.19807075,6.385678608
5317283257,Place Marchal(Terminus),37.18063819,6.280990538
5318316724,Derb Moulay Chrif,37.17759437,6.328102307
5318316725,Auto cole Elkhayari,37.1757692,6.328816158
5318316726,Cinma Sada,37.17421357,6.329252021
5318393686,Laouina Lharra,37.18673242,6.262126128
5318393687,Mosque Badr,37.17971725,6.264069612
5318405311,Institut Sainte Dominique,37.15928526,6.242327959
5318405312,Clinique Rormandie,37.16759085,6.251602408
5319153968,Oued Al Makhazine,37.18120706,6.276678956
5327871967,Abou Dhar al-Ghifari,37.19523145,6.374889961
5327872002,Kissariat Hay Mohammadi,37.173003,6.332963988
5327872136,Derb Milan,37.15600368,6.317243689
5454030710,Clinique Princes,37.17318622,6.281891852
5484778296,Place Sidi Marouf,37.14790785,6.296174414
5486251484,Place de Mers Sultan,37.1732682,6.28312283
5497336413,Lalla Meriem - Cdt Khattabi,37.13843493,6.344614827
5497336414,Lalla Meriem - Cdt Khattabi,37.13834341,6.344589271
5497336418,Laboratoire Anhiche,37.15336306,6.336772299
5581760147,Clinique Ain Chock,37.13068174,6.297443229
5593149149,Gare Routire 2,37.16020618,6.308872475
5598766069,Parc Ligue Arabe,37.17557214,6.276523564
5599986587,Anoual,37.15262786,6.276265537
5599986588,L'Hermitage,37.15246602,6.282788834
5599986590,El Fida,37.14960177,6.292712533
5599986591,Place Sraghna,37.15312373,6.297415178
5599986592,Derb Sultan,37.15598855,6.303234477
5599986593,Hay el Farah,37.15559316,6.312047735
5599986595,Cimetire Achouhada,37.16119489,6.323049581
5599986596,Hay Adil,37.16422864,6.328826011
5599986597,Mdakra,37.16646011,6.333194822
5599986598,Carrires Centrales,37.17923674,6.332049778
5599986599,Dar Lamane,37.18048611,6.338522039
5599986600,Al Wifaq,37.18288355,6.356655907
5599986601,Al Aman,37.18681309,6.361350498
5599986602,Prfecture d'An-Seba,37.1900972,6.36393279
5599987244,Gare d'An-Seba,37.19605249,6.369067622
5599987245,Terminus Sidi Bernoussi,37.19919731,6.382466622
5604093021,Cas 1373,37.15462032,6.220768582
5620869930,Cinma Rif,37.18312071,6.284383753
5622993014,CNSS Dar Laman,37.18027203,6.338456246
5640550320,Clinique CNSS Bernoussi,37.20051124,6.390276889
5663957821,Cas 1411,37.21148354,6.405569054
5673668902,Hay Nassim,37.09795645,6.238885234
5685625712,Hay Zoubir,37.11967708,6.222824236
6008533287,Kissariat Hay Mohammadi,37.17087598,6.333502538
6128450133,Al Laymoun,37.11960784,6.238229303
6128450134,Lissasfa Terminus,37.11397142,6.234848963
6128450146,Lissasfa Terminus,37.11396771,6.234888296
6128450147,Al Laymoun,37.11959069,6.238249862
6204178204,Technoparc,37.12054664,6.264886938
6204178211,Technoparc,37.12032224,6.264823671
6315414385,,37.17469868,6.311660071
6429440057,El Fida,37.14963301,6.292685375
6429440058,Place Sraghna,37.15316992,6.297377791
6429440059,Derb Sultan,37.15603846,6.303218112
6429440060,Hay el Farah,37.15564737,6.312021743
6429440061,Cimetire Achouhada,37.16124513,6.323025125
6429440062,Hay Adil,37.16427992,6.328812956
6429440063,Mdakra,37.16652503,6.33314955
6429440064,Carrires Centrales,37.17928112,6.332034869
6429440065,Prfecture d'An-Seba,37.19007996,6.363898047
6429440066,Gare d'An-Seba,37.19608017,6.369033819
6429440586,Terminus Sidi Bernoussi,37.19923493,6.382452717
6429440611,Abou Dhar al-Ghifari,37.19527469,6.374865956
6429440694,Al Aman,37.18684284,6.361321491
6429440707,Al Wifaq,37.18292223,6.35663095
6429440745,Dar Lamane,37.18053574,6.338510024
6429440773,Kissariat Hay Mohammadi,37.17299192,6.332924971
6429440854,Derb Milan,37.15603779,6.317264575
6429440986,2 Mars,37.15247247,6.287627126
6429441007,L'Hermitage,37.15251196,6.282790728
6429441024,Anoual,37.15267549,6.276269454
6431898912,Facults - Route d'El Jadida,37.12246787,6.248029267
6650871379,Mosque Adarissa,37.09287741,6.260969806
6731741065,Dalila,37.21121845,6.362940738
6732077010,Lyce Abdelkhalek Torres,37.18046924,6.384156443
6750754683,Diar Essaada,37.17460409,6.370190675
6774160443,Bureau Police Anassi,37.17716555,6.397742618
6774160467,Anassi,37.17904271,6.401170332
6775146616,Handassa,37.15506049,6.236081284
6785837757,Commissariat Nassim,37.09946998,6.245908212
6785837759,Mosque Nassim,37.09721984,6.243024666
6786219308,Groupe Scolaire Kamel,37.20457749,6.399852963
6801982507,Madame Loula,37.1498625,6.198997042
6830515082,Terrain Larbi Zaouli,37.18423423,6.350277084
6840098137,Moulay Youssef(Hpital Sofi),37.18893824,6.268143305
6840210438,Moulay Youssef(Hpital Sofi),37.18903012,6.268398691
6967576266,Dar Laman,37.18086575,6.341337562
6967576269,CNSS Dar Laman,37.18041636,6.338411448
6967576279,Rsidences Alassil,37.17984825,6.334573476
6967588088,Carrires Centrales,37.17909065,6.331672095
9620619575,T.q.hopitaux,37.16110908,6.276312343
9621212209,Caf Flay,37.16476258,6.276449392
10126041763,Groupe 4 Moulay Rachid,37.15209507,6.356868505
10126367382,Nouakchott,37.17312011,6.286471478
10126367398,Sfax,37.17395276,6.289217954
10126367399,Sfax,37.17409699,6.289197455
10126400333,Place de la Victoire,37.17395932,6.291267013
10127198114,Casa Port,37.18478972,6.287889327
10127198115,Casa Port,37.18474483,6.287874801
10127198116,Mohamed Smiha,37.17917794,6.290974125
10127222017,Mohamed Smiha,37.17915449,6.290945947
10127222018,Place de la Victoire,37.17380664,6.291195274
10127222019,Place de la Victoire,37.17379066,6.291162074
10127222020,Zerktouni,37.17004728,6.293656379
10127222021,Zerktouni,37.17010319,6.293673356
10127222022,Habous,37.16351701,6.298586963
10127222023,Habous,37.16349754,6.298623058
10127222024,Garage Allal,37.16024965,6.30011103
10127222025,Garage Allal,37.16030782,6.30012324
10127222026,Derb Tolba,37.15496098,6.302330525
10127222027,Derb Tolba,37.15496718,6.302362377
10127222028,Abou Chouaib Doukkali,37.14452865,6.304396074
10127222029,Abou Chouaib Doukkali,37.14452303,6.304365697
10127222030,Derb Chorfa,37.1497131,6.303531865
10127222031,Derb Chorfa,37.14978232,6.303565743
10127222032,Ifriquia,37.13701352,6.306498537
10127222033,Ifriquia,37.13699762,6.306438305
10127222034,Dar Touzani,37.13038436,6.312259407
10127222035,Dar Touzani,37.13035923,6.312189918
10127222037,Mohammed VI,37.12452384,6.317598671
10127222038,,37.1272218,6.321473298
10127222039,,37.12731757,6.321323678
10127222040,El Allam-El Harti,37.1435606,6.343467879
10127222041,El Allam-El Harti,37.14357518,6.343432393
10127222042,Essahraoui,37.13855573,6.348222061
10127222043,Essahraoui,37.13855938,6.348276887
10127222044,Avenue du 10 Mars 1982,37.13412225,6.345288718
10127222045,Avenue du 10 Mars 1982,37.1341241,6.345349794
10127222046,Hay El Wahda,37.12617497,6.347230428
10127222047,Hay El Wahda,37.12621577,6.347205804
10127222048,Lalla Meriem,37.13974404,6.338186998
10127222049,Lalla Meriem,37.13971189,6.33822013
10127222050,Jardin Alesco,37.13258783,6.328635637
10127222051,Jardin Alesco,37.13257307,6.328674935
10162034998,Hammam Skoura,37.1509311,6.216258726
10162034999,Hammam Skoura,37.15092837,6.216043009
10162035000,Plage Lalla Meriem,37.19044234,6.243638803
10162035001,Plage Lalla Meriem,37.19030372,6.24378481
10162043722,Phare d'el Hank,37.19353915,6.251381484
10162043723,Phare d'el Hank,37.19370994,6.251483098
10162043729,Promenade maritime,37.19110215,6.256295432
10162043731,Promenade maritime,37.19089819,6.256227108
10162043732,Derb Loubila,37.19154309,6.264431897
10162043733,Derb Loubila,37.1913491,6.264733824
10162043734,Marina,37.19314905,6.279575628
10162043735,Marina,37.19300562,6.279406603
10162043738,Mosque Ould el-Hamra,37.1893268,6.281765015
10162043739,Mosque Ould el-Hamra,37.18936353,6.281957648
10162043753,Gare Casa-Port,37.18624621,6.285778411
10162043754,Gare Casa-Port,37.1863912,6.285913822
10162128101,Jardin Al Mostakbel,37.10238485,6.252533241
10162128102,Jardin Al Mostakbel,37.10242464,6.252258527
10162128103,Residence Bachkou,37.11209582,6.256362157
10162128104,Residence Bachkou,37.11215617,6.256116642
10162128105,Carrefour Market,37.11778433,6.259432155
10162128106,Carrefour Market,37.11760387,6.259675701
10163969091,Camelia,37.11975263,6.237682493
10163969092,Camelia,37.11939042,6.237551935
10164017133,Sicotrem,37.11020124,6.239352057
10164017134,Sicotrem,37.11011559,6.239548015
10164017137,Oued Nassim,37.09987812,6.239316037
10164017139,Azbane,37.11520525,6.240591573
10164017140,Azbane,37.11524823,6.24036404
10164017141,Boulevard des Facults,37.12180662,6.22809903
10164017142,Groupe Scolaire Al Amjad,37.12268585,6.22981156
10164169860,clinique alanddalous,37.18307953,6.247942942
10164169861,clinique alanddalous,37.18310312,6.248205001
10164169862,Souk Lahjajma,37.1808853,6.252124108
10164169864,Rsidence Loubna II,37.18404751,6.257646824
10164169865,Cinma Verdun,37.18179381,6.275172929
10164169866,Place Concorde,37.18231472,6.278493508
10164174124,Aswak Assalam Ouled Ziane,37.16697521,6.304924225
10164174125,Aswak Assalam Ouled Ziane,37.16653724,6.304768469
10164174126,Ofppt Ain Borja,37.16370171,6.308200233
10164174127,Ofppt Ain Borja,37.16401812,6.30850124
10164174144,Ptt Hay El Amal,37.15142869,6.308106642
10164174145,Ptt Hay El Amal,37.15123708,6.30801093
10164174146,Collge Zineb Nefzawia,37.14621448,6.311083185
10164174147,Collge Zineb Nefzawia,37.14620432,6.310964295
10164174148,Complexe Educative Hassan II,37.14191908,6.311181849
10164174149,Complexe Educative Hassan II,37.14189061,6.310989294
10164174150,Wafa Assurances,37.12461001,6.317970725
10164174151,Wafa Assurances,37.12480035,6.317851478
10164174152,Lyce Al-Akhyar,37.12814133,6.322435281
10164174153,Lyce Al-Akhyar,37.12810077,6.322776929
10164174154,Cimetire De Sbata,37.12921162,6.332225929
10164174155,Cimetire De Sbata,37.12904977,6.332062593
10164420474,13me Arrondissement,37.15892507,6.251452914
10164420475,13me Arrondissement,37.15883816,6.251268291
10164420477,Hay El Hana,37.1562434,6.234030264
10164519425,Mosque Riad Oulfa,37.13865132,6.21140598
10166797920,Chateau El Quds,37.19793707,6.390462741
10166797921,Chateau El Quds,37.19774396,6.390553792
10166797922,Hospital Al Mansour,37.19587498,6.387191613
10166797923,Hospital Al Mansour,37.1960963,6.387103315
10166812261,Usine Tide,37.2043944,6.385391629
10166812262,Usine Tide,37.20401004,6.384057315
10166812485,Place Ahmed Mekouar,37.20258602,6.360154216
10166812500,Protection civil,37.19425352,6.344434197
10166812501,Lyce Baroudi,37.19226199,6.341937825
10166812502,Prison Okacha,37.19579545,6.337700756
10166812503,Lesieur,37.19375017,6.333494248
10166812504,Ancien Commissariat An-Sebaa,37.19800026,6.330444642
10166812505,Astral,37.19592871,6.326553885
10166812506,Maroc Stylo,37.19341371,6.321599634
10166812507,Maroc Stylo,37.19316949,6.321575247
10166812508,Espace Marina,37.19131916,6.317460026
10166812509,Espace Marina,37.19114572,6.317606436
10166812510,Pharmacie Al Bouchra,37.18871442,6.312395644
10166812511,Pharmacie Al Bouchra,37.18847965,6.312437459
10166812527,Pharmacie Nassim,37.18701259,6.309104308
10166812528,Pharmacie Nassim,37.18682267,6.309198404
10166812529,Station Emile Zola,37.18334796,6.306064979
10166999057,Ecole Ibnou Katir,37.08681615,6.247541619
10166999058,Ecole Ibnou Katir,37.08700064,6.24734089
10166999059,Socowel,37.08959926,6.248352255
10166999060,Socowel,37.08962942,6.248137643
10166999061,Hay Najah,37.0906288,6.252705974
10166999062,Res.dandoun,37.09178946,6.257718667
10166999151,Ppinire De L'Ourika,37.09299084,6.269607637
10166999154,Ecole Ibnou Katir,37.09992492,6.271271759
10166999155,Avenue Adohha,37.10012823,6.271215014
10166999156,Jnane Californie,37.10459014,6.285196998
10166999157,Jnane Californie,37.10474086,6.285047672
10166999160,Anwar Californie,37.10889747,6.28892348
10166999161,Omaria,37.11308917,6.292120385
10166999162,Bd Tichka,37.11292116,6.295677609
10167184384,Cite Cheminot,37.18657062,6.32821524
10167184385,Cite Cheminot,37.18677722,6.328286165
10167455414,Wilaya,37.17597825,6.281072444
10167455855,Rsidence Abwab Rabia,37.1420939,6.232475354
10167455856,Rsidence Abwab Rabia,37.1423402,6.232197654
10167669315,Bd Fatima Zeroual,37.1030437,6.304016063
10167875435,Mosque Azhar,37.12692858,6.211321246
10167875436,Mosque Azhar,37.12679251,6.211118482
10167961097,Stade Pre-Jgo,37.13839982,6.253248454
10167961266,Gare Routire Ouled Ziane,37.15748171,6.310695532
10167961267,Gare Routire Ouled Ziane,37.15765656,6.31118044
10169897458,Caserne Des F.A.R.,37.20660014,6.429128148
10169897459,Caserne Des F.A.R.,37.20660994,6.428885436
10169897460,Aroport De Tit Mellil,37.18878775,6.420699544
10169897461,Aroport De Tit Mellil,37.18867602,6.420831782
10169897462,Sevam,37.18599332,6.406885644
10169897463,Sevam,37.18617671,6.40658642
10171740734,Mosque Zerhoun,37.15597345,6.373464966
10171740735,Hpital Sidi Moumen,37.16082556,6.375312705
10171740736,Hpital Sidi Moumen,37.16082184,6.375611132
10171740737,Cimetire Sidi Moumen,37.16360765,6.374155377
10171740738,Al Houda,37.16825417,6.369403436
10171740739,Al Houda,37.16824236,6.369181652
10171740740,Rsidence Sada,37.17250097,6.368409945
10171740741,Rsidence Sada,37.1724366,6.368126449
10171740742,Diar Essaada,37.1743648,6.370310579
10171740745,Doha,37.17908649,6.376007977
10171740759,Bernoussi,37.20351984,6.387967904
10171980884,Douar Mzab,37.15698429,6.408779907
10171980885,Residence Assalam,37.16754501,6.412447473
10171980886,Residence Assalam,37.16777221,6.412315377
10171981349,Rsidence Alkima,37.17950227,6.39036554
10171981350,Lyce Abdelkhalek Torres,37.18032189,6.384152347
10171981354,Rsidence Al Kawtar,37.18191162,6.380782133
10172044862,Ofppt Ain Sebaa,37.19761953,6.364441576
10172044863,Ofppt Ain Sebaa,37.19760503,6.364630723
10172044865,Caf Majorelle,37.20249914,6.365807206
10172044866,Salle Derkaoui,37.20570987,6.371605099
10172044867,Salle Derkaoui,37.20543283,6.371792323
10172044876,Chefchaouni,37.2114904,6.381270401
10172044885,Zi Bernoussi,37.21382967,6.384286387
10172044886,Zi Bernoussi,37.21368502,6.384407331
10172268306,Hay El Wahda,37.12420219,6.35211837
10172268307,Hay El Wahda,37.12444169,6.351987774
10172268308,Abattoir,37.13224121,6.346067847
10172577256,Terminus Lmkansa II,37.10387593,6.335165731
10172577281,Hay Ennaser,37.11408562,6.325359375
10172577282,Hay Ennaser,37.11394289,6.325206512
10172577285,Derb Foukara,37.14901498,6.292629807
10174422772,Thtre Moulay Rachid,37.1473876,6.341886073
10174422773,Thtre Moulay Rachid,37.14719622,6.341658019
10174422774,Hay Salama,37.15127881,6.338629162
10174422775,Hay Salama,37.15076031,6.33850872
10174422776,Laboratoire Anhiche,37.15325425,6.336531961
10174422777,Hay Adil - Maison Des Jeunes,37.16258113,6.329154017
10174422778,,37.16282847,6.329452298
10174422779,Cimetire Juif,37.16606696,6.326888248
10174422780,Cimetire Juif,37.16622752,6.327215291
10174422781,Bata,37.17067969,6.319846764
10174422782,Rsidence Assalam,37.17126474,6.315659311
10174422783,Rsidence Assalam,37.17108017,6.315560754
10174422784,Hay Hakam,37.17274045,6.303429135
10174676878,Club Bmce,37.1791819,6.24908624
10174676911,Mosque Hassan II - Mdiathque,37.19176935,6.270349077
10174676912,Mosque Hassan II - Mdiathque,37.19203871,6.270146273
10174676913,Derb Tazi,37.193271,6.272830316
10174676914,Sour Jdid,37.19230491,6.279438118
10174676943,Rsidence El-Baida,37.17120209,6.292706218
10174676944,Rsidence El-Baida,37.171315,6.292871684
10174676945,Kissariat Akhemassi,37.1571915,6.301513442
10174676946,Kissariat Akhemassi,37.15706255,6.301270195
10174676947,Rsidence Annacer,37.15272835,6.303187964
10174676948,Rsidence Annacer,37.15268532,6.30296731
10174677254,Hay Drissia,37.1485653,6.312374628
10174677255,Hay Drissia,37.14874041,6.312244485
10174677256,March Aux Dattes,37.15348411,6.318761876
10174677257,March Aux Dattes,37.15369449,6.318680448
10176008807,Ecole Georges Bizet,37.16169734,6.248866379
10176008808,Ecole Georges Bizet,37.16157922,6.24871187
10176008809,Residence Al Mansour,37.15630914,6.253989563
10176008810,Residence Al Mansour,37.15614454,6.253817926
10176008811,Clinique Riviera,37.15041162,6.261492494
10176008812,Clinique Riviera,37.15039084,6.26118519
10176016628,Moulay Idriss I - Gendarmerie,37.15557734,6.283042542
10176016652,Mosque Sonna,37.14361067,6.291242416
10176016655,Hpital Bouafi,37.14048546,6.292558093
10176016656,Hpital Bouafi,37.14058087,6.292701101
10176016672,Clinique Cnss - Facult,37.12071059,6.299763444
10176016673,Facult D'An-Chock,37.12345631,6.298216902
10176016674,Hmodialyse 2 Mars,37.13561614,6.295385222
10176016675,Hmodialyse 2 Mars,37.13576003,6.295487283
10176016679,Marche de Gros,37.13665482,6.333877589
10176016680,Marche de Gros,37.13644914,6.334064854
10176016681,Bloc 33 Lalla Meriem,37.14298616,6.342979057
10176016682,Bloc 33 Lalla Meriem,37.1432362,6.34281642
10176016684,Mosque Bab Taouba,37.15287666,6.369139075
10176101502,Rond-Point Ben Acha,37.18439066,6.308181697
10176101503,Rond-Point Ben Acha,37.18421994,6.308268757
10176101504,,37.18530047,6.316231391
10176101505,Daf Moulay Ismal,37.18512492,6.316280851
10176101506,Shell,37.18538345,6.322014561
10176101507,Shell,37.18559886,6.321928161
10176101508,March Aux Poulets,37.18246295,6.324098009
10176120119,Derb Moulay Chrif,37.17765298,6.32825845
10177322058,Salhi Bois,37.17005654,6.301061806
10177322059,Salhi Bois,37.16982458,6.3008444
10177322066,Gare Routire,37.16039358,6.3130096
10177322067,,37.16078671,6.311707737
10177322072,Chetaiba,37.1491053,6.326247683
10177322073,Chetaiba,37.14894183,6.325990437
10177322074,Ecole Al Akhawayn,37.14535149,6.330758842
10177322075,Ecole Al Akhawayn,37.14483511,6.330998758
10180681956,Dar Taliba,37.14562245,6.334522397
10180681957,Dar Taliba,37.14628289,6.334306183
10180916737,Hay El Baraka,37.15570398,6.359820942
10180916738,Hay El Baraka,37.15551203,6.359681426
10180916739,Av. Joudar,37.14465865,6.36905162
10180916740,Av. Joudar,37.14456201,6.368807033
10180916742,Jawharat Al Madina,37.14072026,6.364713888
10180916744,Al Madina Jadida,37.1374182,6.36085895
10180916748,Al Amane,37.17980056,6.354698979
10180916749,Al Amane,37.1797406,6.354513263
10180916750,ENCG Ain Sebaa,37.17993125,6.359256546
10180916751,ENCG Ain Sebaa,37.17964646,6.359304756
10180916752,Clinique Doha,37.18253102,6.366938828
10180916753,Clinique Doha,37.18275084,6.366775503
10180916754,Hay El Baraka,37.20703938,6.391480224
10180916755,Amgala,37.20693189,6.391226604
10180916756,Boulevard Chefchaouni,37.21937594,6.391350704
10180916757,Boulevard Chefchaouni,37.21954706,6.391196991
10180916758,Mosquee Q. Industriel,37.22158414,6.39397037
10181391770,Lyce Chaouki,37.16999486,6.272134448
10181557806,Derb Douam,37.12899731,6.32694857
10181657837,Carrires Rehamna,37.1767419,6.374248825
10181657838,Carrires Rehamna,37.17683769,6.373982546
10181657839,Ann. Panoramique,37.1700758,6.364794272
10181657840,Residence Charaf,37.17259445,6.367442967
10181657849,Renault Sidi Othmane,37.14774444,6.340044315
10181657850,Renault Sidi Othmane,37.14757363,6.340178351
10181657853,Sidi Othmane - Marjane,37.14396582,6.335222349
10181657854,Sidi Othmane - Marjane,37.1437946,6.3352874
10181657855,Mosque Lalla Aicha,37.13905215,6.309507789
10181657856,Mosque Lalla Aicha,37.13927594,6.309417554
10181657881,Panoramique,37.13921421,6.304244461
10181657882,Panoramique,37.1393544,6.304147201
10181657883,Hay Rmila,37.13692221,6.300274431
10181657884,Hay Rmila,37.13704604,6.300139047
10184715713,Hpital du Cheikh Khalifa,37.13190632,6.235797137
10184715714,Hpital du Cheikh Khalifa,37.13180286,6.235832359
10213133338,Residence Narjiss,37.10631741,6.245840725
10213133339,Residence Al Mostakbel,37.1085288,6.254914826
10213133340,Residence Al Mostakbel,37.1085953,6.254707582
10213133371,Pharmacie Dalia,37.13150279,6.284916506
10213133372,Ecole Fathallah,37.13417212,6.293046938
10213133373,Ecole Fathallah,37.13444712,6.292994585
10213133402,Mosquee Yacout,37.13170315,6.30898872
10213133403,Mosquee Yacout,37.13154555,6.309086603
10214764666,Cafe Havana,37.10696056,6.254524078
10214764667,Cafe Havana,37.10701921,6.254360866
10214764668,Rsidence Ahali,37.09224749,6.249314428
10214764669,Rsidence Ahali,37.09229889,6.249044738
10214786626,Sidi Messaoud,37.08992644,6.270777934
10214786627,Sidi Messaoud,37.08993635,6.270579095
10214786628,Monsieur Bricolage,37.07877332,6.271826308
10214786629,Monsieur Bricolage,37.07899108,6.272150474
10215081146,Laouina,37.16082119,6.264101534
10215081147,Laouina,37.16091193,6.263850723
10215081148,Cafe Ifri,37.15789952,6.262180637
10215081149,Cafe Ifri,37.15803822,6.262008284
10215081150,Mosque Al Bathae,37.14868183,6.258440295
10215081151,Mosque Al Bathae,37.14874492,6.258134302
10215081152,Shell - Abdellah Ibrahim,37.13981407,6.258442307
10215081153,Shell - Abdellah Ibrahim,37.13982947,6.258034218
10215081156,Trmie d'Azbane,37.1159831,6.239265098
10215081157,Trmie d'Azbane,37.11565415,6.239496404
10215081158,Palais Des Ambassadeurs,37.10290913,6.222403364
10215081159,Palais Des Ambassadeurs,37.10318406,6.222273554
10215081160,Mosque Iraqui,37.09521177,6.212566812
10215081161,Mosque Iraqui,37.09503616,6.212773752
10217134173,Douar Lgouissem,37.0764206,6.232953089
10217134174,Douar Lgouissem,37.07641676,6.232765368
10217137894,Hay Nassim II,37.09060765,6.238907089
10217137895,Hay Nassim II,37.09057734,6.239051003
10217137896,Hay Nassim,37.09789961,6.239044526
10218102763,,37.14557491,6.274525274
10218102764,,37.14519609,6.274125211
10218373571,Les Jardins de Bali,37.14109658,6.276022662
10218373572,Les Jardins de Bali,37.1410075,6.275845666
10218373573,Residence Al Mawlid,37.13361479,6.278219991
10218373574,Residence Al Mawlid,37.13359013,6.277957906
10218373575,Protection Civile,37.1289984,6.279055961
10218373576,Protection Civile,37.12905541,6.27925699
10218373577,Lydec,37.12053192,6.282756667
10218373578,Lydec,37.11988719,6.283209734
10218373579,Ouled Taleb,37.11526269,6.283750887
10218373580,Ouled Taleb,37.11520201,6.283466757
10218373611,Bali Luxury,37.10253695,6.284618681
10218373612,Bali Luxury,37.10253157,6.284323837
10218896676,Madame Loula,37.14993148,6.198757128
10218931821,Dcomobil,37.14579042,6.191948872
10218931822,Dcomobil,37.14527357,6.192087018
10218931823,Lotissement sequia,37.14206064,6.186769115
10218931824,Lotissement sequia,37.1417405,6.187086041
10218931825,Palais Royal Ain Gueddid,37.13896889,6.18289518
10218931826,Palais Royal Ain Gueddid,37.1387461,6.183093454
10218931828,Ain Gueddid,37.13231248,6.174984285
10218931832,Restaurant mrissa,37.12645422,6.164957736
10220779522,Caf Atlas,37.12175282,6.227671516
10220779534,cole Elibrahimi,37.13730482,6.223476023
10220779566,Caf,37.14835744,6.253183705
10220779567,Caf,37.14814727,6.253088868
10220779568,Beausejour,37.14676778,6.256642006
10220779569,Beausejour,37.14698462,6.256830985
10220779570,Boulevard Abderrahim Bouabid,37.14471406,6.259487417
10220779571,Boulevard Abderrahim Bouabid,37.14489887,6.259617765
10220779572,Ecole El Khalil,37.14210993,6.262840994
10220779573,Ecole El Khalil,37.14233371,6.26299961
10222392422,Jnane Oulfa,37.11047261,6.226916328
10222392423,Jnane Oulfa,37.110675,6.227143153
10222392737,Hay Salam,37.12847573,6.232587694
10222392738,Hay Salam,37.12857812,6.232434466
10222392741,Rsidences Firdaouss,37.14012848,6.235972115
10222392745,Angle Oum Rabia/Naciri,37.14293565,6.235364583
10222392776,Handassa,37.1549197,6.236154112
10222392802,Shell Abdelkrim Elkhattabi,37.17219712,6.254687735
10222392803,Rue Washington,37.17917626,6.270626465
10222392804,Rue Washington,37.17929475,6.270420433
10222392805,112 Bd d'Anfa,37.1776638,6.267589102
10222392806,112 Bd d'Anfa,37.17761393,6.267919804
10963462857,Mohamed Joudar,37.15262564,6.358603581
10963462858,Mohamed Joudar,37.15265824,6.35857174
10963477163,Place de la Victoire,37.17439807,6.291507362
10963477164,La Gironde,37.17326959,6.298007058
10963477165,La Gironde,37.17329003,6.298050593
10963477166,Ifni,37.16997773,6.300909345
10963477167,Ifni,37.17001969,6.300912304
10963477168,An Borja,37.16517723,6.306752276
10963477169,An Borja,37.165187,6.30680227
10963477170,Gare Routire Ouled Ziane,37.16052356,6.312400701
10963477171,Gare Routire Ouled Ziane,37.16056478,6.312430123
10963477172,Hay Tissir,37.15649124,6.317390747
10963477173,Hay Tissir,37.15654198,6.317386988
10963477174,Jardin Chtaiba,37.14874325,6.326428152
10963477175,Jardin Chtaiba,37.14877788,6.326454413
10963477176,Nil,37.15020733,6.332103058
10963477177,Nil,37.15021849,6.332131499
10963477178,Hay Salama,37.15195084,6.337701227
10963477179,Hay Salama,37.15192642,6.337787167
10963477180,Mohamed Bouziane,37.14737277,6.341665676
10963477181,Mohamed Bouziane,37.14740982,6.341689764
10963477182,Hay El Falah,37.14674909,6.347816425
10963477183,Hay El Falah,37.14675755,6.347786688
10963477184,Facult de Ben M'Sick,37.14996217,6.352360895
10963477185,Facult de Ben M'Sick,37.14997271,6.352313303
10963477186,Moulay Rachid,37.15614796,6.36315846
10963477187,Moulay Rachid,37.15611835,6.363182275
10963477188,Attacharouk,37.15543777,6.369756669
10963477189,Attacharouk,37.15546621,6.369822366
10963477190,Mohammed Erradi,37.15381254,6.375312389
10963477191,Mohammed Erradi,37.15376619,6.375336263
11050720827,Abdessalam Ennaciri,37.12994766,6.325146838
11050720828,Abdessalam Ennaciri,37.1299762,6.325101035
11050720829,6 Novembre 1975,37.12773333,6.322089674
11050720830,6 Novembre 1975,37.12773101,6.322009378
11148760005,,37.18046321,6.322083857
11220851565,  ,37.1748135,6.392134937
11410363171,,37.16367432,6.203306033
11891941036,,37.1929474,6.271600938
11891946058,,37.19239455,6.271550538
11946278691,Clinique Abdelmoumen,37.14803273,6.274768537
11946278692,Clinique Abdelmoumen,37.14833108,6.274527556
12175374655,Salmia 2 Terminus,37.11762302,6.3456023
12175374656,Salmia 2 Terminus,37.11765131,6.345658652
12175374657,Stade Tessima,37.12186332,6.338319497
12175374658,Stade Tessima,37.12180014,6.338282484
12175374659,Al Joulane,37.12496494,6.334961075
12175374660,Al Joulane,37.12501492,6.33489426
12175374663,Lahrizi,37.12071378,6.329041224
12175374664,Lahrizi,37.1207004,6.329197061
12175374665,Jardin Sunday,37.11675063,6.323673039
12175374666,Jardin Sunday,37.11669492,6.323719128
12175374667,Amgala,37.12056738,6.319544711
12175374668,Amgala,37.12053371,6.319442179
12175374669,Al Qods,37.12468112,6.31660321
12175374670,Al Qods,37.12461295,6.316548608
12175374671,Sefrou,37.1230258,6.310347379
12175374672,Sefrou,37.12294877,6.310375267
12175374673,Taza,37.12190865,6.306111027
12175374674,Taza,37.12182473,6.306137984
12175374675,Al Inara,37.11990081,6.300841557
12175374676,Al Inara,37.11995184,6.300760255
12175374677,Oulad Haddou,37.11701568,6.294910541
12175374678,Oulad Haddou,37.11695333,6.294933762
12175374679,Hay Chrifa,37.11462374,6.290781796
12175374680,Hay Chrifa,37.11468222,6.29066854
12175374681,Taddart,37.11136229,6.284418396
12175374682,Taddart,37.11128587,6.284467247
12175374684,Azzohour,37.10940169,6.278211282
12175374685,Azzohour,37.1094756,6.278181509
12175374686,Californie,37.1100716,6.271573806
12175374687,Californie,37.11016986,6.271548453
12175374688,Casa Nearshore,37.10893872,6.264049354
12175374689,Casa Nearshore,37.10902844,6.264015668
12175374690,Al Moustakbal,37.11038326,6.256537658
12175374691,Al Moustakbal,37.110492,6.256568096
12175374692,Sidi Maarouf,37.11173198,6.25231165
12175374693,Sidi Maarouf,37.1118249,6.252344713
12175375114,Omar El Khayam Terminus,37.11955088,6.237749445
12175375115,Omar El Khayam Terminus,37.1191451,6.238215567
12175375116,Sbata,37.11921047,6.34192812
12175375117,Sbata,37.11913938,6.341904314
12175753773,Cinema Megarama,37.18044909,6.234512814
12175753774,Cinema Megarama,37.18065238,6.234375629
12175753777,Bd De L'Ocan Atlantique,37.17268592,6.222079433
12175753778,Bd De L'Ocan Atlantique,37.17283602,6.222022855
12175753787,Lotissement Saklia,37.14726377,6.212104014
12175753790,Commissariat Riad Oulfa,37.14001487,6.213204798
12175753794,Pharmacie Riad Oulfa,37.1370479,6.20933975
12175753796,Riad Oulfa,37.13468064,6.20628219
12175753798,Al Wattassine,37.13277057,6.203567707
12175753800,Terminus Riad El Oulfa 3,37.12949803,6.202490835
12176746874,Caf La Rotonde,37.16856563,6.277491035
12177189606,Cinma Sahra,37.13264227,6.300547798
12177189609,Mosque Ain Choc,37.13534395,6.299584763
12177189621,Place Sraghna,37.15216002,6.298938032
12177189624,Place Sraghna,37.15495019,6.295003976
12177189626,Rgie de Tabac,37.15968946,6.289818594
12177189630,Centre Addiction,37.16041049,6.281704217
12177189631,Rue Salonique,37.16117982,6.286867571
12177189632,Rue Salonique,37.16109074,6.286849176
12177189634,Facult Mdecine,37.15974774,6.278965617
12179426913,Rond Point Mermoz,37.17449188,6.274831571
12179426917,Rsidence Chifae,37.16712367,6.269136378
12179426918,Rsidence Chifae,37.16719003,6.268854246
12179426919,"Brahim Roudani, 400",37.1651089,6.267505491
12179426920,"Brahim Roudani, 400",37.16525494,6.267260363
12179426926,Coc,37.14491791,6.258352695
12179426927,Coc,37.14497213,6.257953497
12179426930,Marjane Californie,37.12482865,6.26045705
12179426931,Marjane Californie,37.12491419,6.260824414
12179426940,Terminus Sidi Marouf,37.08371289,6.246670971
12179426945,Cnss Sidi Marouf,37.09727182,6.251536136
12179426946,Cnss Sidi Marouf,37.09745536,6.251323077
12179983353,Dar Lhamra,37.15353982,6.23399079
12179983354,Souk Ould Mina,37.15124778,6.229692426
12179983355,Cit Police Ibn Sina,37.14871469,6.224493242
12179983357,Cit Police Ibn Sina,37.14794371,6.228293337
12179983361,Attijari Dra,37.14087266,6.220803836
12179983363,Caf El Qods,37.13778754,6.221152548
12179983373,Atlanta Sport,37.11903703,6.224416965
12179983376,Etablissement Moussaoui,37.12173039,6.228130463
12179983377,Caf Atlas,37.12181359,6.22780168
12179983379,Groupe Scolaire Al Amjad,37.12250752,6.229880794
12179983397,Gare Ennassim,37.09514922,6.245943007
12179983399,Pharmacie Rajeb,37.1037493,6.239669899
12179983400,Pharmacie Rajeb,37.10366202,6.239411693
12180986672,El Hank,37.18932802,6.248896116
12180986674,Laouina Lharra,37.1865632,6.262161112
12180986678,Rsidence Loubna II,37.18400632,6.257685878
12180986680,Souk Lahjajma,37.18079033,6.252180197
12180986682,Club Bmce,37.17908309,6.249172076
12180986684,Rsidence Bouaarfa,37.18722062,6.265396712
12180986685,Pharmacie Bordeaux,37.18410038,6.271786483
12180986686,Jardin Bordeaux,37.18542121,6.269563552
12180986690,Cinma Verdun,37.18193169,6.275291936
12182135856,Oulms Terminus,37.15475224,6.254290694
12182135857,Oulms Terminus,37.15468566,6.254346614
12182135860,C.I.L.,37.14995744,6.247265434
12182135861,C.I.L.,37.14988394,6.247319491
12182135871,Les Musees,37.14730483,6.243353891
12182135872,Les Musees,37.14738691,6.243260546
12182135873,Oued Oum Rabia,37.14531326,6.239159267
12182135874,Oued Oum Rabia,37.14538815,6.239093034
12182135875,Oued Beht,37.13972339,6.225833584
12182135876,Oued Beht,37.13964993,6.225874166
12182135877,Oued Laou,37.14313437,6.234732728
12182135878,Oued Laou,37.14323137,6.234721456
12182135886,Moulouya,37.13743336,6.222063257
12182135887,Moulouya,37.13734348,6.222111659
12182135888,Haj Fateh,37.13398213,6.216195616
12182135889,Haj Fateh,37.13391704,6.216249272
12182135890,Essafa,37.13121294,6.210493555
12182135891,Essafa,37.13130913,6.21045251
12182135892,Moulay Thami,37.12844525,6.205936652
12182135893,Moulay Thami,37.12850862,6.205852101
12182138406,Riad Al Oulfa,37.1259772,6.202435377
12182138407,Riad Al Oulfa,37.12603443,6.202364367
12182138408,La Rocade,37.12323023,6.198512184
12182138409,La Rocade,37.12329269,6.198443431
12182250868,Terminus Kasbat Al Amine,37.112225,6.221086301
12182264557,Terminus Lissasfa ,37.10958747,6.231117749
12182264559,Lissasfa,37.1096468,6.231256678
12182975463,Stade Pre-Jgo,37.13836622,6.253410637
12183034837,BD. De Bouskoura,37.14271577,6.255766762
12183034838,BD. De Bouskoura,37.14277131,6.255611819
12184319299,Groupe Scolaire Kaoukabi,37.1584871,6.225565832
12184319300,Groupe Scolaire Kaoukabi,37.15867504,6.225510895
12184341201,La Farandole,37.15974002,6.229497763
12184341202,La Farandole,37.15993226,6.22932877
12184341206,Derb Jamila,37.15406008,6.220997846
12184341207,Sidi Al Khadir,37.15159563,6.221187055
12184341212,Caf Azhar,37.12256798,6.218073643
12184341214,Dir. Tch. R. Casa,37.11979505,6.215748253
12184341218,Farah Salam,37.11774165,6.213612397
12184341219,Jnane louz (Terminus),37.11081764,6.20707037
12184855631,Collge Moulouya,37.13923876,6.217371561
12184855632,Commissariat Riad Oulfa,37.13955386,6.213134571
12184855656,pharmacie wifak,37.14131248,6.214301744
12184855663,Caf Tafoukt,37.15332242,6.227099478
12184855665,Consulat de Russie,37.16201612,6.272010216
12184855672,Ibn Chahid,37.16284713,6.268520033
12184855674,Rsidence El Hossaini,37.16138035,6.263839551
12184855676,Carrefour,37.1571962,6.257925508
12184855684,Mosque Afghanistan,37.15555008,6.231142965
12184855686,Caf Bouchiki,37.15430286,6.228998692
12184855687,ISTA Hay Hassani,37.15000721,6.22131789
12185040404,Gare Routire Ouled Ziane,37.15735665,6.310861463
12186575491,Caf De Mexico,37.16681412,6.260802114
12186575492,Caf De Mexico,37.16697294,6.260599254
12186575494,Complexe Mohammed V,37.16551579,6.256668959
12186620301,Caf Kairaouan,37.14211762,6.22960649
12186620320,Rsidence Bassatine El Oulfa,37.127862,6.205278912
12186620321,Rsidence Bassatine El Oulfa,37.12801495,6.205058687
12186620322,Pharmacie Route Rahma,37.12432404,6.200293942
12186620323,Pharmacie Route Rahma,37.12461093,6.200169273
12186620324,Rsidence Bassatine El Oulfa 2,37.1296328,6.209060041
12186620325,Rsidence Bassatine El Oulfa 2,37.12979753,6.209231706
12186620326,"Boulevard Haj Fateh, 37",37.11778103,6.225518949
12186620327,"Boulevard Haj Fateh, 37",37.11806807,6.225573987
12186620328,Direction Tch. Re,37.12227986,6.213683614
12186620329,Direction Tch. Re,37.12228244,6.213589696
12186620332,Stendhal - Ghandi,37.14880005,6.265033886
12186620333,Stendhal - Ghandi,37.14881082,6.264832001
12186620336,Derb Ghalef,37.15315236,6.269827271
12186620337,Derb Ghalef,37.1533597,6.269908086
12186620342,Moulay Idriss I - Gendarmerie,37.15573155,6.283037792
12186620343,Lyce Lahlou,37.15572568,6.278409755
12186620345,Visabel,37.152893,6.272590197
12186620346,Visabel,37.15264255,6.272461589
12187133171,C.A. Tensift,37.13330174,6.221045135
12187133172,cole Elbennay,37.13464387,6.224284716
12189072887,Derb Foukara,37.14909329,6.292647415
12189247134,Somaver,37.20411157,6.357397898
12189247136,Angle Eucaliptus/Plage,37.20291285,6.355598499
12189247138,Pharmacie Des Parcs,37.20041573,6.353606257
12189247141,Mosque Elwahda,37.19715857,6.349475193
12189247144,Lyce Baroudi,37.19238893,6.341815593
12189247146,Prison Okacha,37.19568502,6.33775816
12189247148,Lesieur,37.19363812,6.333571159
12189247150,Ancien Commissariat An-Sebaa,37.19777889,6.330589041
12189247152,Astral,37.19577322,6.326665815
12189247157,cole El Jazira,37.19859593,6.360789998
12189247159,Rsidence Ain Sba,37.19601601,6.357837821
12189247170,Terminus Mansouria,37.20920156,6.410686588
12189247172,Rsidence B. Elbaida,37.20619919,6.406792637
12189247174,Rsidence El Baida Qods,37.20417581,6.40284108
12189247180,Hay Mbarka,37.20505687,6.388355086
12189247182,Bernoussi,37.20348574,6.388087361
12189247184,Cinma Salam,37.19814524,6.385806339
12189247186,Pst. Pointage,37.19981377,6.385477318
12190068319,Station Emile Zola,37.18321687,6.306260549
12190068321,Acima (Zola),37.18083746,6.303225736
12190068324,Protection civil,37.19405365,6.34461536
12190068325,Rma Qods,37.20248343,6.397259297
12190068326,Rma Qods,37.20270955,6.397081827
12191908981,Lyce Mohammed V,37.16257676,6.28516848
12191908988,Boulangerie Al Khalil,37.13007155,6.300278238
12191908989,Boulangerie Al Khalil,37.13015491,6.299987664
12191925605,Sel Blanc,37.14597365,6.290810902
12193026722,Mosque Adarissa,37.09269383,6.261060087
12193026724,Res.dandoun,37.09167336,6.257796264
12193026726,Hay Najah,37.09051926,6.252801967
12193026741,Ppinire De L'Ourika,37.09286401,6.26964433
12193026760,Pharmacie Sidi Marouf,37.09090017,6.2490494
12193026761,Pharmacie Sidi Marouf,37.09079083,6.249033353
12193026762,Umpa,37.08667735,6.270709299
12193026763,Umpa,37.08680737,6.270905464
12193529497,Centre de Sant SMJ,37.16544534,6.351097574
12193529499,Caf Britchia,37.16157295,6.348737407
12193596001,Groupe 3 - Sidi Moumen Jdid,37.16307078,6.349443637
12193596007,Richbond (GC),37.17470869,6.34951117
12193596009,Rahal Traiteur,37.1806248,6.350254962
12193596013,Maroc Bureau,37.18641997,6.372528974
12193596085,Bernoussi,37.20350922,6.388790224
12193642216,Caf Majorelle,37.2023855,6.365872387
12193642220,Doha,37.17913619,6.376109086
12193642229,Residence Charaf,37.17255618,6.367520184
12193642233,Cimetire Sidi Moumen,37.16364963,6.374283536
12193642237,Mosque Zerhoun,37.15606797,6.37336604
12195597523,Projet Salam,37.17690929,6.404150397
12195597533,Rsidence Alkima,37.18001332,6.390386825
12195597539,Rsidence Al Kawtar,37.18175059,6.380868074
12195597544,Mosque Abir,37.16832177,6.357014512
12195597546,Carr. raib,37.16744478,6.360603573
12195597548,Ann. Panoramique,37.16989745,6.3649418
12195597550,Hmara,37.1610644,6.346455352
12195597552,Ifiam,37.15684781,6.34228008
12195597554,Hay Sadri,37.1551032,6.340136919
12195597556,Bournazel,37.153968,6.338602402
12195642075,Tribunal Administratif,37.14284529,6.33083335
12195642077,Pharmacie Ibn Zohr,37.14045334,6.327657919
12195642079,Complexe K. Zebdi,37.13916395,6.325928392
12197144355,Technopark,37.12495731,6.26440691
12197144356,Technopark,37.12494134,6.264431915
12197199177,Terminus Marif Oliverie,37.17058502,6.261580596
12197199180,Lotissement El Baida 2,37.14576547,6.360577357
12197199181,Lotissement El Baida 2,37.14560237,6.360830915
12197236103,March Crio,37.1371868,6.340164105
12197236104,March Crio,37.13732456,6.340475669
12197236123,Place de Mers Sultan,37.17304304,6.283345538
12197236126,Nouakchott,37.17299158,6.286521836
12197236170,Sour Jdid,37.19220218,6.279469276
12197236173,Derb Tazi,37.19318285,6.272915004
12197236175,Parc le Lac,37.18921054,6.265564913
12197236183,Bmci Lalla Yacout,37.17690361,6.286275657
12197420841,Orphelinat in Choc,37.1306725,6.304708204
12197420847,Pharmacie Dalia,37.13139022,6.285032133
12197420849,Angle Rue des Pommes d'Or,37.13072085,6.280926097
12197420852,cole Le Pont,37.12877857,6.273979758
12197420859,Mosque Taha,37.13279263,6.288096372
12197420860,Mosque Taha,37.13246668,6.287639881
12197420862,Residence Narjiss,37.10648955,6.245936952
12197420878,Rsidence El Mawlid,37.10400546,6.251553422
12197420879,Rsidence El Mawlid,37.10412104,6.251649448
12197420881,Pharmacie Ouaadoudi,37.1047718,6.243137593
12197420883,cole Elanouar,37.10115799,6.241682552
12197540386,Ppinire Derb Ghalef,37.15915082,6.267330629
12197540387,Ppinire Derb Ghalef,37.15906799,6.2675586
12197540388,Rsidence El Majd,37.15616668,6.266581992
12197540389,Rsidence El Majd,37.15608384,6.266784626
12197540393,cole Frres Safa,37.13400085,6.314617989
12197540398,Pharmacie Oceania,37.13417486,6.319269192
12197540399,Pharmacie Oceania,37.13432871,6.319214246
12197540400,Pharmacie Ibn Rochd,37.1370826,6.32323
12197558501,Pharmacie Ibn Rochd,37.13723903,6.323128679
12197558502,Pharmacie Adiba,37.13555586,6.32124213
12197558503,Pharmacie Adiba,37.13570412,6.321071373
12197558504,Hammam El Fen,37.13356443,6.316912079
12197558505,Hammam El Fen,37.13372531,6.316981657
12197743490,Mosque Andalous,37.17484962,6.393425956
12197743491,Mosque Andalous,37.17514123,6.393358978
12197743492,Groupe 5 Moulay Rachid,37.15469454,6.362901472
12197743493,Groupe 5 Moulay Rachid,37.15484771,6.362565631
12197743494,Ofppt Sidi Moumen,37.1597449,6.37171227
12197743495,Ofppt Sidi Moumen,37.15997859,6.371650635
12197743496,Centre De Maintenance,37.16445144,6.379157929
12197743497,Centre De Maintenance,37.16467685,6.378999108
12197743498,Nejmet Sidi Moumen,37.17155882,6.387714085
12197743499,Nejmet Sidi Moumen,37.17132566,6.387957965
12197743500,Rsidence Walili,37.16826707,6.384046411
12197767501,Rsidence Walili,37.16849711,6.383885289
12197767502,Rsidence Des Oliviers,37.17404581,6.390780898
12197767503,Rsidence Des Oliviers,37.17373058,6.391009074
12197767504,Mosque Abou Horaira,37.15823674,6.365961133
12197767505,Mosque Abou Horaira,37.15846309,6.36562463
12198850246,Caserne Forces Auxliares,37.14965746,6.333078667
12199134915,Mosque El Fath,37.12411056,6.226394667
12199134916,Rond Point Chahdia,37.1269163,6.224695234
12199134937,Gare Routire Ouled Ziane,37.15776779,6.310984619
12199198230,M'salla Ain Chok,37.12839001,6.300087003
12199198233,Derb Douam,37.12891905,6.327031648
12199748438,Clinique Cnss - Facult,37.12065448,6.299681825
12199748443,Caf Konouz,37.12270101,6.310033261
12199748444,Caf Konouz,37.12298087,6.309849659
12200265405,Place Marchal,37.18137643,6.281162231
12200265406,Khayriat,37.15221611,6.346804882
12200265407,Khayriat,37.15196112,6.347096451
12200265408,Bouziane,37.15537634,6.352861286
12200265409,Bouziane,37.15520076,6.353065404
12200432632,CF El Hank,37.19041339,6.251866453
12200432634,OFPPT El Hank,37.18962462,6.255312973
12200435135,Centre Bus Ben M'Sick,37.15830813,6.322379216
12200435136,Centre Bus Ben M'Sick,37.15815698,6.322404132
12202342541,Mosque Badr,37.17964397,6.263844674
12202342542,Hmodialyse 2 Mars,37.13473794,6.29615364
12202342543,Hmodialyse 2 Mars,37.13460765,6.295883604
12202342544,Facult D'An-Chock,37.12354992,6.298341288
12202497555,Salmia 2 Terminus,37.11743389,6.345988335
12202497556,Salmia 2 Terminus,37.1172964,6.345856144
12202497559,Caf Souria,37.12754968,6.333344747
12202497560,Caf Souria,37.12773503,6.333490763
12202497562,Villa Des Lilas,37.14147601,6.272031823
12202497563,Gare De L'Oasis,37.13769756,6.270863382
12202497564,Gare De L'Oasis,37.13778977,6.270707751
12202497565,March De L'Oasis,37.13852358,6.267317439
12202497566,March De L'Oasis,37.13880573,6.26747064
12202497567,Maison Des Soeurs,37.14040482,6.265330473
12202497568,Maison Des Soeurs,37.14022864,6.265190081
12202497570,Complexe C. K.Zebdi,37.13595806,6.326646903
12202628034,Anwar Californie,37.10880702,6.288985063
12202628036,Omaria,37.1129113,6.292137726
12202628038,Bd Tichka,37.11273718,6.295769062
12202628040,Pharmacie Omaria,37.1164469,6.298026776
12202628042,Angle Dakhla/Tichka,37.11290922,6.299121015
12202628044,Bd Fatima Zeroual,37.10288429,6.304168792
12206004728,Douar Bouhali,37.1528512,6.407708494
12206004729,Douar Bouhali,37.15300518,6.407567437
12206004732,Tit Mellil - Renault,37.17748261,6.416272798
12206156343,Sakani Ahl Loghlam,37.18805694,6.416215096
12206156344,Sakani Ahl Loghlam,37.18777958,6.416126467
12206203248,Caf Brochette,37.21345165,6.367311358
12206203250,Dalila,37.21091772,6.363077044
12206244976,Piscine Oceanic,37.20912179,6.358187838
12206244978,Plage Raha,37.20803139,6.351489245
12206277386,Groupe 3 Hay Moulay Rachid,37.14879391,6.352591056
12206277387,Etablissement Imane,37.14559854,6.356941321
12206277388,Etablissement Imane,37.1457479,6.357049611
12206284836,Oukacha - Zone Industrielle,37.20475264,6.343438967
12206284837,Oukacha - Zone Industrielle,37.20492126,6.343314864
12206284838,Afriquia Oukacha,37.19897221,6.332881832
12206284839,Afriquia Oukacha,37.19917137,6.332783302
12206747694,Hpital 20 aout,37.15784844,6.283036185
12207794960,Ingelec,37.19011227,6.342634488
12207794961,Ingelec,37.19029176,6.34255792
12207826693,Oued Al Makhazine,37.18096514,6.276683656
12208782253,Sakani,37.19255317,6.407958825
12208782255,Bacha. Al Azhar,37.18672766,6.402115278
12208782256,Al Azhar,37.19011844,6.399944998
12208782258,Commissariat Azhar,37.19123701,6.399255742
12208782264,Espace De Barcelone,37.18956933,6.407041248
12208782265,Espace De Barcelone,37.18971057,6.40672641
12208922179,Espace Les Palmiers,37.16664923,6.274165732
12208922181,Casa Voyageurs,37.17457536,6.306018568
12208922183,OFPPT Bahmad,37.17334187,6.30497292
12208949562,Foum Lahcen,37.17811204,6.328388728
12208949571,Lyce Jaber Ibnou Hayane,37.17240207,6.294716333
12208949572,Lyce Jaber Ibnou Hayane,37.17247643,6.294498319
12208949573,March De Gros,37.17608902,6.302107294
12208949574,March De Gros,37.17582323,6.30207015
12208949575,Dakar - Chimicolor,37.17513316,6.295406386
12208949576,Dakar - Chimicolor,37.17507025,6.29561793
12208949577,Ben J'Dia,37.16965659,6.291208341
12208949578,Ben J'Dia,37.16944076,6.291339429
12208949579,Aramex,37.16858317,6.288904872
12208949580,Aramex,37.16879256,6.288764128
12208949584,Pharmacie Mars,37.1820942,6.355342598
12208949585,Pharmacie Mars,37.18233179,6.355170975
12208949586,Caf Damos,37.18456673,6.358457185
12208949587,Caf Damos,37.18463735,6.358157425
12209708078,Kissariat Aziza,37.16789989,6.337561462
12209708079,Kissariat Aziza,37.16817495,6.33756209
12209708080,Florida,37.16680806,6.333844801
12209708081,Florida,37.16701587,6.333571047
12209864621,Commissariat Moulay Chrif,37.18090266,6.326977707
12209864623,March Aux Poulets,37.18246274,6.324364011
12209942206,Ecole Royale De Gendarmerie,37.21785031,6.409030482
12209942208,M'Salla Qods,37.21534553,6.405719861
12209942209,M'Salla Qods,37.21556094,6.405592466
12211898268,El Mzabyine - Mosque,37.10539241,6.308171063
12211898269,El Mzabyine - Mosque,37.1054994,6.308054804
12211898270,Glacier Via Roma,37.11207104,6.305591747
12211898271,Glacier Via Roma,37.11224075,6.305471769
12211898272,Hay Cherifa,37.11039811,6.300292304
12211898273,Hay Cherifa,37.11019542,6.300303678
12211898281,Mosque Hay Mohammadi,37.1718104,6.331338129
12211898282,La Ferraille,37.1678417,6.315742748
12211898283,La Ferraille,37.16793817,6.315571
12211898284,Hassan El Alaoui,37.16380187,6.310724841
12211898285,Hassan El Alaoui,37.16391806,6.310705805
12212880493,Mohammed VI,37.12448057,6.317613194
12212952901,Parc de la Ligue Arabe,37.17340882,6.278663544
12212952902,Parc de la Ligue Arabe,37.17335472,6.278648577
12212952903,Mers Sultan,37.17315124,6.283292764
12212952904,Mers Sultan,37.17318401,6.283254642
12212952905,Jabar Ibn Hayane,37.17435692,6.291961145
12212952906,Jabar Ibn Hayane,37.17429401,6.291934517
