{"route_id": 4497427, "route_name": "T1: Sidi Moumen > Lissasfa", "stop_id": 6429440057, "stop_name": "El Fida", "latitude": 37.14963301, "longitude": 6.292685375, "vehicle_id": "VEH005", "trip_id": "TRIP_9170", "timestamp": "2025-07-01 18:55:05", "speed_kmh": 15.84, "eta_next_stop": "2025-07-01 19:01:03", "occupancy_level": "high", "status": "early", "delay_seconds": -246}
{"route_id": 4497427, "route_name": "T1: Sidi Moumen > Lissasfa", "stop_id": 10180681957, "stop_name": "Dar Taliba", "latitude": 37.14628289, "longitude": 6.334306183, "vehicle_id": "VEH007", "trip_id": "TRIP_3015", "timestamp": "2025-07-01 18:39:31", "speed_kmh": 33.68, "eta_next_stop": "2025-07-01 18:50:30", "occupancy_level": "medium", "status": "on_time", "delay_seconds": 587}
{"route_id": 4497427, "route_name": "T1: Sidi Moumen > Lissasfa", "stop_id": 428587309, "stop_name": "OFPPT Bahmad", "latitude": 37.17340326, "longitude": 6.304862745, "vehicle_id": "VEH009", "trip_id": "TRIP_1843", "timestamp": "2025-07-01 17:56:27", "speed_kmh": 41.58, "eta_next_stop": "2025-07-01 18:01:36", "occupancy_level": "medium", "status": "delayed", "delay_seconds": -139}
{"route_id": 5762251, "route_name": "L6 Place Marchal - Mekanssa", "stop_id": 12184855665, "stop_name": "Consulat de Russie", "latitude": 37.16201612, "longitude": 6.272010216, "vehicle_id": "VEH004", "trip_id": "TRIP_9923", "timestamp": "2025-07-01 18:23:15", "speed_kmh": 43.79, "eta_next_stop": "2025-07-01 18:25:22", "occupancy_level": "low", "status": "delayed", "delay_seconds": 470}
{"route_id": 5762251, "route_name": "L6 Place Marchal - Mekanssa", "stop_id": 12175374660, "stop_name": "Al Joulane", "latitude": 37.12501492, "longitude": 6.33489426, "vehicle_id": "VEH004", "trip_id": "TRIP_4023", "timestamp": "2025-07-01 18:23:50", "speed_kmh": 20.09, "eta_next_stop": "2025-07-01 18:27:15", "occupancy_level": "high", "status": "delayed", "delay_seconds": 528}
{"route_id": 5762251, "route_name": "L6 Place Marchal - Mekanssa", "stop_id": 6732077010, "stop_name": "Lyce Abdelkhalek Torres", "latitude": 37.18046924, "longitude": 6.384156443, "vehicle_id": "VEH020", "trip_id": "TRIP_1239", "timestamp": "2025-07-01 18:03:38", "speed_kmh": 22.61, "eta_next_stop": "2025-07-01 18:12:13", "occupancy_level": "low", "status": "early", "delay_seconds": 323}
{"route_id": 6256526, "route_name": "L7 Place Marchal - Sidi Marouf", "stop_id": 12189247170, "stop_name": "Terminus Mansouria", "latitude": 37.20920156, "longitude": 6.410686588, "vehicle_id": "VEH015", "trip_id": "TRIP_6604", "timestamp": "2025-07-01 18:26:02", "speed_kmh": 35.04, "eta_next_stop": "2025-07-01 18:28:00", "occupancy_level": "medium", "status": "early", "delay_seconds": 360}
{"route_id": 6256526, "route_name": "L7 Place Marchal - Sidi Marouf", "stop_id": 10174676878, "stop_name": "Club Bmce", "latitude": 37.1791819, "longitude": 6.24908624, "vehicle_id": "VEH017", "trip_id": "TRIP_9508", "timestamp": "2025-07-01 18:04:17", "speed_kmh": 31.99, "eta_next_stop": "2025-07-01 18:13:57", "occupancy_level": "medium", "status": "early", "delay_seconds": 290}
{"route_id": 6256526, "route_name": "L7 Place Marchal - Sidi Marouf", "stop_id": 12186620320, "stop_name": "Rsidence Bassatine El Oulfa", "latitude": 37.127862, "longitude": 6.205278912, "vehicle_id": "VEH015", "trip_id": "TRIP_7843", "timestamp": "2025-07-01 18:50:52", "speed_kmh": 10.61, "eta_next_stop": "2025-07-01 19:00:29", "occupancy_level": "low", "status": "early", "delay_seconds": -106}
{"route_id": 6256719, "route_name": "L9E BD. Houphout Boigny - Ennassim", "stop_id": 10181657849, "stop_name": "Renault Sidi Othmane", "latitude": 37.14774444, "longitude": 6.340044315, "vehicle_id": "VEH011", "trip_id": "TRIP_5587", "timestamp": "2025-07-01 18:55:41", "speed_kmh": 44.88, "eta_next_stop": "2025-07-01 18:58:48", "occupancy_level": "low", "status": "delayed", "delay_seconds": 543}
{"route_id": 6256719, "route_name": "L9E BD. Houphout Boigny - Ennassim", "stop_id": 4208136041, "stop_name": "March Ain Choc", "latitude": 37.12848179, "longitude": 6.302388107, "vehicle_id": "VEH015", "trip_id": "TRIP_8161", "timestamp": "2025-07-01 18:18:17", "speed_kmh": 45.94, "eta_next_stop": "2025-07-01 18:20:05", "occupancy_level": "high", "status": "on_time", "delay_seconds": -34}
{"route_id": 6256719, "route_name": "L9E BD. Houphout Boigny - Ennassim", "stop_id": 5075925093, "stop_name": "Angle Anfa/Zerktouni", "latitude": 37.17676241, "longitude": 6.265286117, "vehicle_id": "VEH009", "trip_id": "TRIP_9017", "timestamp": "2025-07-01 18:11:50", "speed_kmh": 28.61, "eta_next_stop": "2025-07-01 18:21:56", "occupancy_level": "medium", "status": "on_time", "delay_seconds": 237}
{"route_id": 6268217, "route_name": "L5 Gare Casa Port-Terminus Riad El Oulfa 3", "stop_id": 5041526772, "stop_name": "Orphelinat in Choc", "latitude": 37.13081112, "longitude": 6.304723504, "vehicle_id": "VEH016", "trip_id": "TRIP_9205", "timestamp": "2025-07-01 18:45:07", "speed_kmh": 45.94, "eta_next_stop": "2025-07-01 18:52:01", "occupancy_level": "high", "status": "early", "delay_seconds": 44}
{"route_id": 6268217, "route_name": "L5 Gare Casa Port-Terminus Riad El Oulfa 3", "stop_id": 5079778947, "stop_name": "Clinique Romandie", "latitude": 37.16755812, "longitude": 6.251874154, "vehicle_id": "VEH018", "trip_id": "TRIP_1912", "timestamp": "2025-07-01 18:11:20", "speed_kmh": 45.97, "eta_next_stop": "2025-07-01 18:13:57", "occupancy_level": "low", "status": "delayed", "delay_seconds": 589}
{"route_id": 6268217, "route_name": "L5 Gare Casa Port-Terminus Riad El Oulfa 3", "stop_id": 12195597552, "stop_name": "Ifiam", "latitude": 37.15684781, "longitude": 6.34228008, "vehicle_id": "VEH017", "trip_id": "TRIP_3381", "timestamp": "2025-07-01 18:56:38", "speed_kmh": 26.69, "eta_next_stop": "2025-07-01 19:01:35", "occupancy_level": "low", "status": "on_time", "delay_seconds": -33}
{"route_id": 6268421, "route_name": "L20 Gare Routiere - Riad Oulfa", "stop_id": 6429440694, "stop_name": "Al Aman", "latitude": 37.18684284, "longitude": 6.361321491, "vehicle_id": "VEH014", "trip_id": "TRIP_1495", "timestamp": "2025-07-01 18:08:55", "speed_kmh": 32.79, "eta_next_stop": "2025-07-01 18:13:09", "occupancy_level": "low", "status": "early", "delay_seconds": 525}
{"route_id": 6268421, "route_name": "L20 Gare Routiere - Riad Oulfa", "stop_id": 12184341219, "stop_name": "Jnane louz (Terminus)", "latitude": 37.11081764, "longitude": 6.20707037, "vehicle_id": "VEH019", "trip_id": "TRIP_8416", "timestamp": "2025-07-01 18:04:04", "speed_kmh": 40.87, "eta_next_stop": "2025-07-01 18:14:41", "occupancy_level": "high", "status": "on_time", "delay_seconds": -187}
{"route_id": 6268421, "route_name": "L20 Gare Routiere - Riad Oulfa", "stop_id": 458761367, "stop_name": "Ct Police Bernoussi", "latitude": 37.19101305, "longitude": 6.373455527, "vehicle_id": "VEH011", "trip_id": "TRIP_5220", "timestamp": "2025-07-01 18:54:30", "speed_kmh": 19.37, "eta_next_stop": "2025-07-01 19:04:21", "occupancy_level": "high", "status": "on_time", "delay_seconds": 34}
{"route_id": 6270288, "route_name": "L306 Marif-Lakhiaita", "stop_id": 10215081148, "stop_name": "Cafe Ifri", "latitude": 37.15789952, "longitude": 6.262180637, "vehicle_id": "VEH008", "trip_id": "TRIP_9039", "timestamp": "2025-07-01 18:39:18", "speed_kmh": 34.54, "eta_next_stop": "2025-07-01 18:48:15", "occupancy_level": "high", "status": "delayed", "delay_seconds": -206}
{"route_id": 6270288, "route_name": "L306 Marif-Lakhiaita", "stop_id": 10176016655, "stop_name": "Hpital Bouafi", "latitude": 37.14048546, "longitude": 6.292558093, "vehicle_id": "VEH011", "trip_id": "TRIP_3473", "timestamp": "2025-07-01 18:47:33", "speed_kmh": 16.59, "eta_next_stop": "2025-07-01 18:54:01", "occupancy_level": "low", "status": "delayed", "delay_seconds": 598}
{"route_id": 6270288, "route_name": "L306 Marif-Lakhiaita", "stop_id": 5056545807, "stop_name": "Foum Lahcen", "latitude": 37.17793122, "longitude": 6.328521914, "vehicle_id": "VEH005", "trip_id": "TRIP_8146", "timestamp": "2025-07-01 18:40:11", "speed_kmh": 39.94, "eta_next_stop": "2025-07-01 18:48:30", "occupancy_level": "high", "status": "early", "delay_seconds": 333}
{"route_id": 6270382, "route_name": "L72 Salmia 2 Terminus - Sidi Al Khadir", "stop_id": 10218373611, "stop_name": "Bali Luxury", "latitude": 37.10253695, "longitude": 6.284618681, "vehicle_id": "VEH020", "trip_id": "TRIP_2507", "timestamp": "2025-07-01 18:05:35", "speed_kmh": 44.18, "eta_next_stop": "2025-07-01 18:12:07", "occupancy_level": "medium", "status": "early", "delay_seconds": -122}
{"route_id": 6270382, "route_name": "L72 Salmia 2 Terminus - Sidi Al Khadir", "stop_id": 10164174127, "stop_name": "Ofppt Ain Borja", "latitude": 37.16401812, "longitude": 6.30850124, "vehicle_id": "VEH004", "trip_id": "TRIP_4951", "timestamp": "2025-07-01 18:51:31", "speed_kmh": 30.57, "eta_next_stop": "2025-07-01 19:02:09", "occupancy_level": "medium", "status": "delayed", "delay_seconds": 501}
{"route_id": 6270382, "route_name": "L72 Salmia 2 Terminus - Sidi Al Khadir", "stop_id": 2207627589, "stop_name": "Daouliz", "latitude": 37.18925962, "longitude": 6.243745343, "vehicle_id": "VEH001", "trip_id": "TRIP_9208", "timestamp": "2025-07-01 18:43:45", "speed_kmh": 23.7, "eta_next_stop": "2025-07-01 18:49:10", "occupancy_level": "low", "status": "on_time", "delay_seconds": 184}
{"route_id": 6278180, "route_name": "L67 Moulay Youssef(Hpital Sofi) - Ouad Dahab", "stop_id": 12175374673, "stop_name": "Taza", "latitude": 37.12190865, "longitude": 6.306111027, "vehicle_id": "VEH011", "trip_id": "TRIP_2627", "timestamp": "2025-07-01 18:46:29", "speed_kmh": 11.99, "eta_next_stop": "2025-07-01 18:53:39", "occupancy_level": "high", "status": "early", "delay_seconds": 167}
{"route_id": 6278180, "route_name": "L67 Moulay Youssef(Hpital Sofi) - Ouad Dahab", "stop_id": 12197236123, "stop_name": "Place de Mers Sultan", "latitude": 37.17304304, "longitude": 6.283345538, "vehicle_id": "VEH015", "trip_id": "TRIP_7030", "timestamp": "2025-07-01 18:19:26", "speed_kmh": 35.26, "eta_next_stop": "2025-07-01 18:28:50", "occupancy_level": "low", "status": "early", "delay_seconds": 424}
{"route_id": 6278180, "route_name": "L67 Moulay Youssef(Hpital Sofi) - Ouad Dahab", "stop_id": 12208922183, "stop_name": "OFPPT Bahmad", "latitude": 37.17334187, "longitude": 6.30497292, "vehicle_id": "VEH006", "trip_id": "TRIP_9945", "timestamp": "2025-07-01 18:55:42", "speed_kmh": 31.07, "eta_next_stop": "2025-07-01 18:59:38", "occupancy_level": "medium", "status": "early", "delay_seconds": 53}
{"route_id": 6281535, "route_name": "L60 Moulay Youssef(Hpital Sofi) - Jamila", "stop_id": 26268470, "stop_name": "Sakani", "latitude": 37.19243738, "longitude": 6.408276624, "vehicle_id": "VEH012", "trip_id": "TRIP_4630", "timestamp": "2025-07-01 18:39:27", "speed_kmh": 16.2, "eta_next_stop": "2025-07-01 18:46:37", "occupancy_level": "medium", "status": "early", "delay_seconds": -36}
{"route_id": 6281535, "route_name": "L60 Moulay Youssef(Hpital Sofi) - Jamila", "stop_id": 5081812209, "stop_name": "Caf Planete House", "latitude": 37.13546026, "longitude": 6.346703002, "vehicle_id": "VEH016", "trip_id": "TRIP_9083", "timestamp": "2025-07-01 17:58:55", "speed_kmh": 46.63, "eta_next_stop": "2025-07-01 18:01:54", "occupancy_level": "high", "status": "early", "delay_seconds": 310}
{"route_id": 6281535, "route_name": "L60 Moulay Youssef(Hpital Sofi) - Jamila", "stop_id": 10176016673, "stop_name": "Facult D'An-Chock", "latitude": 37.12345631, "longitude": 6.298216902, "vehicle_id": "VEH008", "trip_id": "TRIP_6771", "timestamp": "2025-07-01 18:22:02", "speed_kmh": 36.31, "eta_next_stop": "2025-07-01 18:29:29", "occupancy_level": "high", "status": "delayed", "delay_seconds": 552}
{"route_id": 6281796, "route_name": "L63 Salmia 2 Terminus - Sidi Al Khadir", "stop_id": 1945407440, "stop_name": "Carr. Schneider", "latitude": 37.14650003, "longitude": 6.236550441, "vehicle_id": "VEH016", "trip_id": "TRIP_6039", "timestamp": "2025-07-01 18:38:24", "speed_kmh": 12.94, "eta_next_stop": "2025-07-01 18:42:46", "occupancy_level": "medium", "status": "delayed", "delay_seconds": 490}
{"route_id": 6281796, "route_name": "L63 Salmia 2 Terminus - Sidi Al Khadir", "stop_id": 2941139197, "stop_name": "Centre de Sant SMJ", "latitude": 37.16551752, "longitude": 6.351056736, "vehicle_id": "VEH016", "trip_id": "TRIP_1878", "timestamp": "2025-07-01 17:56:24", "speed_kmh": 48.85, "eta_next_stop": "2025-07-01 18:01:28", "occupancy_level": "medium", "status": "early", "delay_seconds": 75}
{"route_id": 6281796, "route_name": "L63 Salmia 2 Terminus - Sidi Al Khadir", "stop_id": 10164420474, "stop_name": "13me Arrondissement", "latitude": 37.15892507, "longitude": 6.251452914, "vehicle_id": "VEH003", "trip_id": "TRIP_1337", "timestamp": "2025-07-01 18:45:49", "speed_kmh": 47.88, "eta_next_stop": "2025-07-01 18:53:21", "occupancy_level": "high", "status": "delayed", "delay_seconds": 170}
{"route_id": 6283392, "route_name": "L22 Place Marchal - Mandarouna", "stop_id": 5081741628, "stop_name": "BIM Moulay Rachid", "latitude": 37.15256936, "longitude": 6.362167033, "vehicle_id": "VEH013", "trip_id": "TRIP_7209", "timestamp": "2025-07-01 18:36:33", "speed_kmh": 47.61, "eta_next_stop": "2025-07-01 18:40:27", "occupancy_level": "medium", "status": "early", "delay_seconds": -179}
{"route_id": 6283392, "route_name": "L22 Place Marchal - Mandarouna", "stop_id": 5029883710, "stop_name": "Rsidence Rio", "latitude": 37.17708379, "longitude": 6.260027796, "vehicle_id": "VEH011", "trip_id": "TRIP_3877", "timestamp": "2025-07-01 17:59:37", "speed_kmh": 24.48, "eta_next_stop": "2025-07-01 18:06:55", "occupancy_level": "medium", "status": "on_time", "delay_seconds": -33}
{"route_id": 6283392, "route_name": "L22 Place Marchal - Mandarouna", "stop_id": 2235605431, "stop_name": "Anciens Abattoirs", "latitude": 37.17712617, "longitude": 6.318960272, "vehicle_id": "VEH014", "trip_id": "TRIP_6061", "timestamp": "2025-07-01 18:28:48", "speed_kmh": 15.53, "eta_next_stop": "2025-07-01 18:35:00", "occupancy_level": "medium", "status": "on_time", "delay_seconds": 27}
{"route_id": 6287182, "route_name": "L97 Anassi - Marif", "stop_id": 10164174151, "stop_name": "Wafa Assurances", "latitude": 37.12480035, "longitude": 6.317851478, "vehicle_id": "VEH020", "trip_id": "TRIP_7598", "timestamp": "2025-07-01 18:11:16", "speed_kmh": 49.48, "eta_next_stop": "2025-07-01 18:13:17", "occupancy_level": "high", "status": "early", "delay_seconds": 436}
{"route_id": 6287182, "route_name": "L97 Anassi - Marif", "stop_id": 12208782255, "stop_name": "Bacha. Al Azhar", "latitude": 37.18672766, "longitude": 6.402115278, "vehicle_id": "VEH003", "trip_id": "TRIP_2205", "timestamp": "2025-07-01 18:54:53", "speed_kmh": 16.52, "eta_next_stop": "2025-07-01 19:02:44", "occupancy_level": "high", "status": "delayed", "delay_seconds": -285}
{"route_id": 6287182, "route_name": "L97 Anassi - Marif", "stop_id": 1848117149, "stop_name": "Caf Haouzia", "latitude": 37.14651183, "longitude": 6.327480614, "vehicle_id": "VEH005", "trip_id": "TRIP_1442", "timestamp": "2025-07-01 18:38:49", "speed_kmh": 11.21, "eta_next_stop": "2025-07-01 18:41:48", "occupancy_level": "medium", "status": "delayed", "delay_seconds": 312}
{"route_id": 6287399, "route_name": "L97B Facult Ben M'Sick - Lissasfa", "stop_id": 10162128106, "stop_name": "Carrefour Market", "latitude": 37.11760387, "longitude": 6.259675701, "vehicle_id": "VEH006", "trip_id": "TRIP_8092", "timestamp": "2025-07-01 18:38:18", "speed_kmh": 10.94, "eta_next_stop": "2025-07-01 18:48:38", "occupancy_level": "low", "status": "delayed", "delay_seconds": -97}
{"route_id": 6287399, "route_name": "L97B Facult Ben M'Sick - Lissasfa", "stop_id": 10174676943, "stop_name": "Rsidence El-Baida", "latitude": 37.17120209, "longitude": 6.292706218, "vehicle_id": "VEH001", "trip_id": "TRIP_5604", "timestamp": "2025-07-01 18:03:11", "speed_kmh": 49.78, "eta_next_stop": "2025-07-01 18:14:10", "occupancy_level": "medium", "status": "on_time", "delay_seconds": 392}
{"route_id": 6287399, "route_name": "L97B Facult Ben M'Sick - Lissasfa", "stop_id": 10127222040, "stop_name": "El Allam-El Harti", "latitude": 37.1435606, "longitude": 6.343467879, "vehicle_id": "VEH018", "trip_id": "TRIP_5797", "timestamp": "2025-07-01 18:00:31", "speed_kmh": 21.28, "eta_next_stop": "2025-07-01 18:03:51", "occupancy_level": "medium", "status": "early", "delay_seconds": -128}
{"route_id": 6289070, "route_name": "L301 Hay Hassani-Fouala", "stop_id": 12197767504, "stop_name": "Mosque Abou Horaira", "latitude": 37.15823674, "longitude": 6.365961133, "vehicle_id": "VEH005", "trip_id": "TRIP_7013", "timestamp": "2025-07-01 18:20:16", "speed_kmh": 39.53, "eta_next_stop": "2025-07-01 18:29:59", "occupancy_level": "medium", "status": "delayed", "delay_seconds": 104}
{"route_id": 6289070, "route_name": "L301 Hay Hassani-Fouala", "stop_id": 6801982507, "stop_name": "Madame Loula", "latitude": 37.1498625, "longitude": 6.198997042, "vehicle_id": "VEH011", "trip_id": "TRIP_2434", "timestamp": "2025-07-01 17:57:54", "speed_kmh": 35.11, "eta_next_stop": "2025-07-01 18:01:32", "occupancy_level": "medium", "status": "on_time", "delay_seconds": -86}
{"route_id": 6289070, "route_name": "L301 Hay Hassani-Fouala", "stop_id": 10220779566, "stop_name": "Caf", "latitude": 37.14835744, "longitude": 6.253183705, "vehicle_id": "VEH007", "trip_id": "TRIP_3915", "timestamp": "2025-07-01 18:42:45", "speed_kmh": 13.6, "eta_next_stop": "2025-07-01 18:52:51", "occupancy_level": "medium", "status": "delayed", "delay_seconds": 583}
{"route_id": 6292188, "route_name": "L300 Quartier Hpitaux - Bouskoura", "stop_id": 3843049043, "stop_name": "Place Marchal(Terminus)", "latitude": 37.18038909, "longitude": 6.280897986, "vehicle_id": "VEH011", "trip_id": "TRIP_3847", "timestamp": "2025-07-01 18:06:11", "speed_kmh": 11.99, "eta_next_stop": "2025-07-01 18:16:23", "occupancy_level": "medium", "status": "delayed", "delay_seconds": 77}
{"route_id": 6292188, "route_name": "L300 Quartier Hpitaux - Bouskoura", "stop_id": 5054979621, "stop_name": "cole Al Ajial", "latitude": 37.13861012, "longitude": 6.223947621, "vehicle_id": "VEH017", "trip_id": "TRIP_5616", "timestamp": "2025-07-01 18:39:24", "speed_kmh": 44.55, "eta_next_stop": "2025-07-01 18:44:49", "occupancy_level": "medium", "status": "early", "delay_seconds": 331}
{"route_id": 6292188, "route_name": "L300 Quartier Hpitaux - Bouskoura", "stop_id": 10164169865, "stop_name": "Cinma Verdun", "latitude": 37.18179381, "longitude": 6.275172929, "vehicle_id": "VEH012", "trip_id": "TRIP_2915", "timestamp": "2025-07-01 18:42:10", "speed_kmh": 49.21, "eta_next_stop": "2025-07-01 18:49:11", "occupancy_level": "high", "status": "delayed", "delay_seconds": -77}
{"route_id": 6292331, "route_name": "L143 Ferara - Tacharouk", "stop_id": 5046150621, "stop_name": "Clinique Abdelmoumen", "latitude": 37.15332741, "longitude": 6.275436313, "vehicle_id": "VEH007", "trip_id": "TRIP_6010", "timestamp": "2025-07-01 18:55:25", "speed_kmh": 31.81, "eta_next_stop": "2025-07-01 19:02:39", "occupancy_level": "low", "status": "early", "delay_seconds": 579}
{"route_id": 6292331, "route_name": "L143 Ferara - Tacharouk", "stop_id": 10213133402, "stop_name": "Mosquee Yacout", "latitude": 37.13170315, "longitude": 6.30898872, "vehicle_id": "VEH018", "trip_id": "TRIP_9808", "timestamp": "2025-07-01 18:13:23", "speed_kmh": 31.32, "eta_next_stop": "2025-07-01 18:17:41", "occupancy_level": "high", "status": "delayed", "delay_seconds": -83}
{"route_id": 6292331, "route_name": "L143 Ferara - Tacharouk", "stop_id": 12182135876, "stop_name": "Oued Beht", "latitude": 37.13964993, "longitude": 6.225874166, "vehicle_id": "VEH003", "trip_id": "TRIP_6964", "timestamp": "2025-07-01 18:32:36", "speed_kmh": 41.79, "eta_next_stop": "2025-07-01 18:42:30", "occupancy_level": "low", "status": "on_time", "delay_seconds": 139}
{"route_id": 6292387, "route_name": "L107 Tacharouk - Lissasfa", "stop_id": 5040025165, "stop_name": "Terminus Hay Salam", "latitude": 37.12489106, "longitude": 6.231769336, "vehicle_id": "VEH018", "trip_id": "TRIP_3705", "timestamp": "2025-07-01 18:16:22", "speed_kmh": 31.81, "eta_next_stop": "2025-07-01 18:19:34", "occupancy_level": "medium", "status": "early", "delay_seconds": 480}
{"route_id": 6292387, "route_name": "L107 Tacharouk - Lissasfa", "stop_id": 6429440745, "stop_name": "Dar Lamane", "latitude": 37.18053574, "longitude": 6.338510024, "vehicle_id": "VEH015", "trip_id": "TRIP_8622", "timestamp": "2025-07-01 18:47:25", "speed_kmh": 12.02, "eta_next_stop": "2025-07-01 18:57:09", "occupancy_level": "medium", "status": "delayed", "delay_seconds": 537}
{"route_id": 6292387, "route_name": "L107 Tacharouk - Lissasfa", "stop_id": 5054958834, "stop_name": "Rond Point Chahdia", "latitude": 37.12678829, "longitude": 6.224622854, "vehicle_id": "VEH018", "trip_id": "TRIP_9435", "timestamp": "2025-07-01 18:55:22", "speed_kmh": 10.91, "eta_next_stop": "2025-07-01 19:06:01", "occupancy_level": "high", "status": "early", "delay_seconds": -223}
{"route_id": 6294768, "route_name": "Ligne 150: Moulay Thami - Hay Hassani T2", "stop_id": 5054981419, "stop_name": "Wafa Cash", "latitude": 37.13054138, "longitude": 6.208909528, "vehicle_id": "VEH011", "trip_id": "TRIP_5690", "timestamp": "2025-07-01 18:40:29", "speed_kmh": 42.86, "eta_next_stop": "2025-07-01 18:50:35", "occupancy_level": "low", "status": "delayed", "delay_seconds": 332}
{"route_id": 6294768, "route_name": "Ligne 150: Moulay Thami - Hay Hassani T2", "stop_id": 12197420849, "stop_name": "Angle Rue des Pommes d'Or", "latitude": 37.13072085, "longitude": 6.280926097, "vehicle_id": "VEH002", "trip_id": "TRIP_2337", "timestamp": "2025-07-01 18:36:42", "speed_kmh": 35.77, "eta_next_stop": "2025-07-01 18:40:17", "occupancy_level": "low", "status": "delayed", "delay_seconds": 463}
{"route_id": 6294768, "route_name": "Ligne 150: Moulay Thami - Hay Hassani T2", "stop_id": 5067639207, "stop_name": "Centre Cul. Socio.", "latitude": 37.10449588, "longitude": 6.253439728, "vehicle_id": "VEH016", "trip_id": "TRIP_9413", "timestamp": "2025-07-01 18:20:27", "speed_kmh": 31.6, "eta_next_stop": "2025-07-01 18:30:34", "occupancy_level": "low", "status": "delayed", "delay_seconds": -86}
{"route_id": 6296033, "route_name": "L38 Hay El Falah - El Hank", "stop_id": 12175374659, "stop_name": "Al Joulane", "latitude": 37.12496494, "longitude": 6.334961075, "vehicle_id": "VEH003", "trip_id": "TRIP_8613", "timestamp": "2025-07-01 18:29:30", "speed_kmh": 17.26, "eta_next_stop": "2025-07-01 18:33:03", "occupancy_level": "high", "status": "early", "delay_seconds": 288}
{"route_id": 6296033, "route_name": "L38 Hay El Falah - El Hank", "stop_id": 12175753773, "stop_name": "Cinema Megarama", "latitude": 37.18044909, "longitude": 6.234512814, "vehicle_id": "VEH013", "trip_id": "TRIP_1026", "timestamp": "2025-07-01 18:35:15", "speed_kmh": 49.45, "eta_next_stop": "2025-07-01 18:44:51", "occupancy_level": "medium", "status": "delayed", "delay_seconds": -21}
{"route_id": 6296033, "route_name": "L38 Hay El Falah - El Hank", "stop_id": 5041491375, "stop_name": "Mosque Elkaoutar", "latitude": 37.1555948, "longitude": 6.30496472, "vehicle_id": "VEH003", "trip_id": "TRIP_5715", "timestamp": "2025-07-01 18:39:25", "speed_kmh": 38.08, "eta_next_stop": "2025-07-01 18:46:43", "occupancy_level": "high", "status": "on_time", "delay_seconds": -144}
{"route_id": 6296908, "route_name": "L84 Farah Salam - BD. Houphout Boigny", "stop_id": 12197558503, "stop_name": "Pharmacie Adiba", "latitude": 37.13570412, "longitude": 6.321071373, "vehicle_id": "VEH012", "trip_id": "TRIP_7895", "timestamp": "2025-07-01 18:35:17", "speed_kmh": 19.87, "eta_next_stop": "2025-07-01 18:41:22", "occupancy_level": "low", "status": "on_time", "delay_seconds": 229}
{"route_id": 6296908, "route_name": "L84 Farah Salam - BD. Houphout Boigny", "stop_id": 5054971302, "stop_name": "Oulfa", "latitude": 37.13173954, "longitude": 6.221170072, "vehicle_id": "VEH001", "trip_id": "TRIP_5095", "timestamp": "2025-07-01 17:58:58", "speed_kmh": 39.37, "eta_next_stop": "2025-07-01 18:09:48", "occupancy_level": "medium", "status": "on_time", "delay_seconds": 295}
{"route_id": 6296908, "route_name": "L84 Farah Salam - BD. Houphout Boigny", "stop_id": 4592227165, "stop_name": "Centre de Maintenance", "latitude": 37.16523856, "longitude": 6.379907855, "vehicle_id": "VEH003", "trip_id": "TRIP_4621", "timestamp": "2025-07-01 17:56:55", "speed_kmh": 13.01, "eta_next_stop": "2025-07-01 18:03:20", "occupancy_level": "high", "status": "delayed", "delay_seconds": 223}
{"route_id": 6852610, "route_name": "T1: Lissasfa > Sidi Moumen", "stop_id": 1848422166, "stop_name": "Showroom", "latitude": 37.18878048, "longitude": 6.353929085, "vehicle_id": "VEH010", "trip_id": "TRIP_8274", "timestamp": "2025-07-01 18:19:57", "speed_kmh": 40.19, "eta_next_stop": "2025-07-01 18:25:05", "occupancy_level": "high", "status": "on_time", "delay_seconds": 490}
{"route_id": 6852610, "route_name": "T1: Lissasfa > Sidi Moumen", "stop_id": 5047422420, "stop_name": "Gare Routire", "latitude": 37.15876232, "longitude": 6.308660142, "vehicle_id": "VEH010", "trip_id": "TRIP_2432", "timestamp": "2025-07-01 18:36:43", "speed_kmh": 17.26, "eta_next_stop": "2025-07-01 18:40:00", "occupancy_level": "low", "status": "on_time", "delay_seconds": -211}
{"route_id": 6852610, "route_name": "T1: Lissasfa > Sidi Moumen", "stop_id": 12197420852, "stop_name": "cole Le Pont", "latitude": 37.12877857, "longitude": 6.273979758, "vehicle_id": "VEH017", "trip_id": "TRIP_1436", "timestamp": "2025-07-01 18:07:33", "speed_kmh": 38.35, "eta_next_stop": "2025-07-01 18:16:06", "occupancy_level": "medium", "status": "delayed", "delay_seconds": 428}
{"route_id": 7432397, "route_name": "L72 Sidi Al Khadir - Salmia 2 Terminus", "stop_id": 5599986595, "stop_name": "Cimetire Achouhada", "latitude": 37.16119489, "longitude": 6.323049581, "vehicle_id": "VEH017", "trip_id": "TRIP_4002", "timestamp": "2025-07-01 18:12:09", "speed_kmh": 32.78, "eta_next_stop": "2025-07-01 18:22:15", "occupancy_level": "high", "status": "early", "delay_seconds": -291}
{"route_id": 7432397, "route_name": "L72 Sidi Al Khadir - Salmia 2 Terminus", "stop_id": 10163969092, "stop_name": "Camelia", "latitude": 37.11939042, "longitude": 6.237551935, "vehicle_id": "VEH016", "trip_id": "TRIP_3364", "timestamp": "2025-07-01 18:55:59", "speed_kmh": 18.68, "eta_next_stop": "2025-07-01 19:00:39", "occupancy_level": "medium", "status": "early", "delay_seconds": -45}
{"route_id": 7432397, "route_name": "L72 Sidi Al Khadir - Salmia 2 Terminus", "stop_id": 332202617, "stop_name": "cole Normale Suprieure", "latitude": 37.11809817, "longitude": 6.242945868, "vehicle_id": "VEH002", "trip_id": "TRIP_4724", "timestamp": "2025-07-01 18:18:51", "speed_kmh": 18.07, "eta_next_stop": "2025-07-01 18:24:22", "occupancy_level": "medium", "status": "early", "delay_seconds": 502}
{"route_id": 7433132, "route_name": "L67 Ouad Dahab - Moulay Youssef(Hpital Sofi)", "stop_id": 10166812528, "stop_name": "Pharmacie Nassim", "latitude": 37.18682267, "longitude": 6.309198404, "vehicle_id": "VEH020", "trip_id": "TRIP_1556", "timestamp": "2025-07-01 18:47:41", "speed_kmh": 33.02, "eta_next_stop": "2025-07-01 18:57:17", "occupancy_level": "low", "status": "delayed", "delay_seconds": -141}
{"route_id": 7433132, "route_name": "L67 Ouad Dahab - Moulay Youssef(Hpital Sofi)", "stop_id": 10213133340, "stop_name": "Residence Al Mostakbel", "latitude": 37.1085953, "longitude": 6.254707582, "vehicle_id": "VEH015", "trip_id": "TRIP_7962", "timestamp": "2025-07-01 18:02:31", "speed_kmh": 48.4, "eta_next_stop": "2025-07-01 18:12:08", "occupancy_level": "medium", "status": "on_time", "delay_seconds": -250}
{"route_id": 7433132, "route_name": "L67 Ouad Dahab - Moulay Youssef(Hpital Sofi)", "stop_id": 6315414385, "stop_name": NaN, "latitude": 37.17469868, "longitude": 6.311660071, "vehicle_id": "VEH009", "trip_id": "TRIP_7397", "timestamp": "2025-07-01 18:17:12", "speed_kmh": 12.52, "eta_next_stop": "2025-07-01 18:22:51", "occupancy_level": "medium", "status": "early", "delay_seconds": -270}
{"route_id": 7433169, "route_name": "L97B Lissasfa - Facult Ben M'Sick", "stop_id": 12186620320, "stop_name": "Rsidence Bassatine El Oulfa", "latitude": 37.127862, "longitude": 6.205278912, "vehicle_id": "VEH006", "trip_id": "TRIP_8612", "timestamp": "2025-07-01 18:33:26", "speed_kmh": 10.11, "eta_next_stop": "2025-07-01 18:39:54", "occupancy_level": "low", "status": "delayed", "delay_seconds": -273}
{"route_id": 7433169, "route_name": "L97B Lissasfa - Facult Ben M'Sick", "stop_id": 12197236126, "stop_name": "Nouakchott", "latitude": 37.17299158, "longitude": 6.286521836, "vehicle_id": "VEH006", "trip_id": "TRIP_1917", "timestamp": "2025-07-01 18:49:03", "speed_kmh": 16.19, "eta_next_stop": "2025-07-01 18:52:50", "occupancy_level": "medium", "status": "delayed", "delay_seconds": -40}
{"route_id": 7433169, "route_name": "L97B Lissasfa - Facult Ben M'Sick", "stop_id": 12182135876, "stop_name": "Oued Beht", "latitude": 37.13964993, "longitude": 6.225874166, "vehicle_id": "VEH013", "trip_id": "TRIP_2452", "timestamp": "2025-07-01 18:20:44", "speed_kmh": 49.53, "eta_next_stop": "2025-07-01 18:26:30", "occupancy_level": "medium", "status": "delayed", "delay_seconds": 309}
{"route_id": 7433257, "route_name": "L97 Marif - Anassi", "stop_id": 6204178204, "stop_name": "Technoparc", "latitude": 37.12054664, "longitude": 6.264886938, "vehicle_id": "VEH016", "trip_id": "TRIP_4881", "timestamp": "2025-07-01 18:18:57", "speed_kmh": 20.33, "eta_next_stop": "2025-07-01 18:21:08", "occupancy_level": "low", "status": "on_time", "delay_seconds": -63}
{"route_id": 7433257, "route_name": "L97 Marif - Anassi", "stop_id": 12209708081, "stop_name": "Florida", "latitude": 37.16701587, "longitude": 6.333571047, "vehicle_id": "VEH004", "trip_id": "TRIP_6466", "timestamp": "2025-07-01 18:10:52", "speed_kmh": 48.48, "eta_next_stop": "2025-07-01 18:20:08", "occupancy_level": "medium", "status": "early", "delay_seconds": 145}
{"route_id": 7433257, "route_name": "L97 Marif - Anassi", "stop_id": 2235605660, "stop_name": "Hay Hassani", "latitude": 37.15995997, "longitude": 6.231605962, "vehicle_id": "VEH014", "trip_id": "TRIP_7842", "timestamp": "2025-07-01 18:50:19", "speed_kmh": 46.84, "eta_next_stop": "2025-07-01 18:55:58", "occupancy_level": "medium", "status": "delayed", "delay_seconds": 106}
{"route_id": 7433385, "route_name": "L63 Sidi Al Khadir - Salmia 2 Terminus", "stop_id": 455489570, "stop_name": "Ain Sba", "latitude": 37.20279368, "longitude": 6.359225279, "vehicle_id": "VEH020", "trip_id": "TRIP_5143", "timestamp": "2025-07-01 17:56:09", "speed_kmh": 30.82, "eta_next_stop": "2025-07-01 18:03:13", "occupancy_level": "low", "status": "on_time", "delay_seconds": 560}
{"route_id": 7433385, "route_name": "L63 Sidi Al Khadir - Salmia 2 Terminus", "stop_id": 5079520280, "stop_name": "Mosque de Lissasfa - Route d'El Jadida", "latitude": 37.11314934, "longitude": 6.235430216, "vehicle_id": "VEH017", "trip_id": "TRIP_7846", "timestamp": "2025-07-01 18:25:27", "speed_kmh": 22.29, "eta_next_stop": "2025-07-01 18:32:39", "occupancy_level": "low", "status": "early", "delay_seconds": -2}
{"route_id": 7433385, "route_name": "L63 Sidi Al Khadir - Salmia 2 Terminus", "stop_id": 10218373579, "stop_name": "Ouled Taleb", "latitude": 37.11526269, "longitude": 6.283750887, "vehicle_id": "VEH015", "trip_id": "TRIP_1388", "timestamp": "2025-07-01 18:52:07", "speed_kmh": 35.21, "eta_next_stop": "2025-07-01 18:54:28", "occupancy_level": "low", "status": "on_time", "delay_seconds": 584}
{"route_id": 7433635, "route_name": "L6 Mekanssa - Place Marchal", "stop_id": 12182135888, "stop_name": "Haj Fateh", "latitude": 37.13398213, "longitude": 6.216195616, "vehicle_id": "VEH019", "trip_id": "TRIP_7505", "timestamp": "2025-07-01 18:23:18", "speed_kmh": 43.9, "eta_next_stop": "2025-07-01 18:26:40", "occupancy_level": "medium", "status": "on_time", "delay_seconds": 169}
{"route_id": 7433635, "route_name": "L6 Mekanssa - Place Marchal", "stop_id": 12197540399, "stop_name": "Pharmacie Oceania", "latitude": 37.13432871, "longitude": 6.319214246, "vehicle_id": "VEH003", "trip_id": "TRIP_2566", "timestamp": "2025-07-01 18:39:50", "speed_kmh": 49.44, "eta_next_stop": "2025-07-01 18:42:21", "occupancy_level": "low", "status": "on_time", "delay_seconds": -282}
{"route_id": 7433635, "route_name": "L6 Mekanssa - Place Marchal", "stop_id": 10172044876, "stop_name": "Chefchaouni", "latitude": 37.2114904, "longitude": 6.381270401, "vehicle_id": "VEH003", "trip_id": "TRIP_6437", "timestamp": "2025-07-01 18:05:03", "speed_kmh": 42.87, "eta_next_stop": "2025-07-01 18:13:40", "occupancy_level": "high", "status": "early", "delay_seconds": 283}
{"route_id": 7440698, "route_name": "L20 Riad Oulfa - Gare Routiere", "stop_id": 5033735918, "stop_name": "Marjane Drissia", "latitude": 37.14556562, "longitude": 6.305067496, "vehicle_id": "VEH012", "trip_id": "TRIP_9110", "timestamp": "2025-07-01 18:25:01", "speed_kmh": 39.11, "eta_next_stop": "2025-07-01 18:27:55", "occupancy_level": "high", "status": "early", "delay_seconds": -235}
{"route_id": 7440698, "route_name": "L20 Riad Oulfa - Gare Routiere", "stop_id": 10214764667, "stop_name": "Cafe Havana", "latitude": 37.10701921, "longitude": 6.254360866, "vehicle_id": "VEH020", "trip_id": "TRIP_5748", "timestamp": "2025-07-01 18:47:26", "speed_kmh": 23.3, "eta_next_stop": "2025-07-01 18:56:46", "occupancy_level": "medium", "status": "on_time", "delay_seconds": -101}
{"route_id": 7440698, "route_name": "L20 Riad Oulfa - Gare Routiere", "stop_id": 5072052641, "stop_name": "Lydec 6 Nov", "latitude": 37.13359765, "longitude": 6.311728544, "vehicle_id": "VEH011", "trip_id": "TRIP_3214", "timestamp": "2025-07-01 18:50:33", "speed_kmh": 37.76, "eta_next_stop": "2025-07-01 18:52:47", "occupancy_level": "high", "status": "early", "delay_seconds": 481}
{"route_id": 7455587, "route_name": "L7 Sidi Marouf - Place Marchal", "stop_id": 5079520280, "stop_name": "Mosque de Lissasfa - Route d'El Jadida", "latitude": 37.11314934, "longitude": 6.235430216, "vehicle_id": "VEH020", "trip_id": "TRIP_7925", "timestamp": "2025-07-01 18:28:49", "speed_kmh": 12.71, "eta_next_stop": "2025-07-01 18:29:57", "occupancy_level": "low", "status": "early", "delay_seconds": -250}
{"route_id": 7455587, "route_name": "L7 Sidi Marouf - Place Marchal", "stop_id": 5034265385, "stop_name": "Mosque d'Algrie", "latitude": 37.19981125, "longitude": 6.394090583, "vehicle_id": "VEH004", "trip_id": "TRIP_8934", "timestamp": "2025-07-01 18:45:26", "speed_kmh": 41.28, "eta_next_stop": "2025-07-01 18:51:53", "occupancy_level": "medium", "status": "on_time", "delay_seconds": -149}
{"route_id": 7455587, "route_name": "L7 Sidi Marouf - Place Marchal", "stop_id": 2186528781, "stop_name": "St. Sinfa", "latitude": 37.1540706, "longitude": 6.375117257, "vehicle_id": "VEH012", "trip_id": "TRIP_6574", "timestamp": "2025-07-01 18:27:57", "speed_kmh": 29.81, "eta_next_stop": "2025-07-01 18:38:41", "occupancy_level": "medium", "status": "early", "delay_seconds": 125}
{"route_id": 7458098, "route_name": "L9E Nassim - BD. Houphout Boigny", "stop_id": 5319153968, "stop_name": "Oued Al Makhazine", "latitude": 37.18120706, "longitude": 6.276678956, "vehicle_id": "VEH006", "trip_id": "TRIP_5455", "timestamp": "2025-07-01 18:07:55", "speed_kmh": 39.12, "eta_next_stop": "2025-07-01 18:12:57", "occupancy_level": "high", "status": "on_time", "delay_seconds": 536}
{"route_id": 7458098, "route_name": "L9E Nassim - BD. Houphout Boigny", "stop_id": 9620619575, "stop_name": "T.q.hopitaux", "latitude": 37.16110908, "longitude": 6.276312343, "vehicle_id": "VEH002", "trip_id": "TRIP_4050", "timestamp": "2025-07-01 18:52:15", "speed_kmh": 24.43, "eta_next_stop": "2025-07-01 18:55:25", "occupancy_level": "medium", "status": "early", "delay_seconds": 444}
{"route_id": 7458098, "route_name": "L9E Nassim - BD. Houphout Boigny", "stop_id": 3843049028, "stop_name": "Lyce Ibn Tofail", "latitude": 37.16954261, "longitude": 6.262573727, "vehicle_id": "VEH009", "trip_id": "TRIP_3228", "timestamp": "2025-07-01 18:21:49", "speed_kmh": 26.8, "eta_next_stop": "2025-07-01 18:28:22", "occupancy_level": "low", "status": "delayed", "delay_seconds": 271}
{"route_id": 7459596, "route_name": "L5 Terminus Riad El Oulfa 3-Gare Casa Port", "stop_id": 11050720829, "stop_name": "6 Novembre 1975", "latitude": 37.12773333, "longitude": 6.322089674, "vehicle_id": "VEH003", "trip_id": "TRIP_8449", "timestamp": "2025-07-01 18:52:19", "speed_kmh": 22.4, "eta_next_stop": "2025-07-01 18:55:00", "occupancy_level": "low", "status": "early", "delay_seconds": 33}
{"route_id": 7459596, "route_name": "L5 Terminus Riad El Oulfa 3-Gare Casa Port", "stop_id": 10162128103, "stop_name": "Residence Bachkou", "latitude": 37.11209582, "longitude": 6.256362157, "vehicle_id": "VEH011", "trip_id": "TRIP_2855", "timestamp": "2025-07-01 18:48:30", "speed_kmh": 42.57, "eta_next_stop": "2025-07-01 18:53:23", "occupancy_level": "low", "status": "delayed", "delay_seconds": 316}
{"route_id": 7459596, "route_name": "L5 Terminus Riad El Oulfa 3-Gare Casa Port", "stop_id": 2235605454, "stop_name": "Hay Raja", "latitude": 37.16164742, "longitude": 6.347127932, "vehicle_id": "VEH001", "trip_id": "TRIP_6799", "timestamp": "2025-07-01 18:45:30", "speed_kmh": 31.95, "eta_next_stop": "2025-07-01 18:49:21", "occupancy_level": "medium", "status": "delayed", "delay_seconds": 238}
{"route_id": 7460155, "route_name": "L22 Mandarouna - Place Marchal", "stop_id": 5054907928, "stop_name": "Lyce Fechtali", "latitude": 37.1400394, "longitude": 6.226273182, "vehicle_id": "VEH001", "trip_id": "TRIP_7911", "timestamp": "2025-07-01 18:12:29", "speed_kmh": 41.87, "eta_next_stop": "2025-07-01 18:22:33", "occupancy_level": "medium", "status": "on_time", "delay_seconds": -55}
{"route_id": 7460155, "route_name": "L22 Mandarouna - Place Marchal", "stop_id": 10215081159, "stop_name": "Palais Des Ambassadeurs", "latitude": 37.10318406, "longitude": 6.222273554, "vehicle_id": "VEH005", "trip_id": "TRIP_4386", "timestamp": "2025-07-01 18:14:28", "speed_kmh": 36.83, "eta_next_stop": "2025-07-01 18:16:27", "occupancy_level": "low", "status": "early", "delay_seconds": 507}
{"route_id": 7460155, "route_name": "L22 Mandarouna - Place Marchal", "stop_id": 6429440064, "stop_name": "Carrires Centrales", "latitude": 37.17928112, "longitude": 6.332034869, "vehicle_id": "VEH010", "trip_id": "TRIP_2575", "timestamp": "2025-07-01 18:34:34", "speed_kmh": 15.0, "eta_next_stop": "2025-07-01 18:39:18", "occupancy_level": "low", "status": "on_time", "delay_seconds": 285}
{"route_id": 7461278, "route_name": "L38 El Hank - Hay El Falah", "stop_id": 409089229, "stop_name": "Cit de l'Air", "latitude": 37.15217376, "longitude": 6.242251912, "vehicle_id": "VEH012", "trip_id": "TRIP_9844", "timestamp": "2025-07-01 18:11:06", "speed_kmh": 26.82, "eta_next_stop": "2025-07-01 18:19:20", "occupancy_level": "low", "status": "on_time", "delay_seconds": 289}
{"route_id": 7461278, "route_name": "L38 El Hank - Hay El Falah", "stop_id": 5041488121, "stop_name": "Rsidence Elmouahidin", "latitude": 37.17221334, "longitude": 6.347863239, "vehicle_id": "VEH019", "trip_id": "TRIP_8746", "timestamp": "2025-07-01 18:00:33", "speed_kmh": 43.18, "eta_next_stop": "2025-07-01 18:06:37", "occupancy_level": "low", "status": "on_time", "delay_seconds": 26}
{"route_id": 7461278, "route_name": "L38 El Hank - Hay El Falah", "stop_id": 428932530, "stop_name": "Espace La Pause", "latitude": 37.14489459, "longitude": 6.325299368, "vehicle_id": "VEH008", "trip_id": "TRIP_2360", "timestamp": "2025-07-01 18:15:39", "speed_kmh": 27.77, "eta_next_stop": "2025-07-01 18:21:05", "occupancy_level": "medium", "status": "delayed", "delay_seconds": 453}
{"route_id": 7465467, "route_name": "L60 Jamila - Moulay Youssef(Hpital Sofi)", "stop_id": 5599986598, "stop_name": "Carrires Centrales", "latitude": 37.17923674, "longitude": 6.332049778, "vehicle_id": "VEH017", "trip_id": "TRIP_1435", "timestamp": "2025-07-01 17:59:34", "speed_kmh": 14.45, "eta_next_stop": "2025-07-01 18:09:02", "occupancy_level": "low", "status": "delayed", "delay_seconds": 260}
{"route_id": 7465467, "route_name": "L60 Jamila - Moulay Youssef(Hpital Sofi)", "stop_id": 12193642233, "stop_name": "Cimetire Sidi Moumen", "latitude": 37.16364963, "longitude": 6.374283536, "vehicle_id": "VEH014", "trip_id": "TRIP_1972", "timestamp": "2025-07-01 18:11:44", "speed_kmh": 27.69, "eta_next_stop": "2025-07-01 18:14:45", "occupancy_level": "low", "status": "delayed", "delay_seconds": 29}
{"route_id": 7465467, "route_name": "L60 Jamila - Moulay Youssef(Hpital Sofi)", "stop_id": 10172577281, "stop_name": "Hay Ennaser", "latitude": 37.11408562, "longitude": 6.325359375, "vehicle_id": "VEH010", "trip_id": "TRIP_6685", "timestamp": "2025-07-01 17:56:17", "speed_kmh": 42.14, "eta_next_stop": "2025-07-01 17:57:53", "occupancy_level": "medium", "status": "early", "delay_seconds": 495}
{"route_id": 7467650, "route_name": "L306 Lakhiaita-Marif", "stop_id": 10218373576, "stop_name": "Protection Civile", "latitude": 37.12905541, "longitude": 6.27925699, "vehicle_id": "VEH005", "trip_id": "TRIP_1570", "timestamp": "2025-07-01 18:06:05", "speed_kmh": 45.51, "eta_next_stop": "2025-07-01 18:15:12", "occupancy_level": "high", "status": "on_time", "delay_seconds": 360}
{"route_id": 7467650, "route_name": "L306 Lakhiaita-Marif", "stop_id": 10217137895, "stop_name": "Hay Nassim II", "latitude": 37.09057734, "longitude": 6.239051003, "vehicle_id": "VEH005", "trip_id": "TRIP_3068", "timestamp": "2025-07-01 18:37:46", "speed_kmh": 16.67, "eta_next_stop": "2025-07-01 18:46:24", "occupancy_level": "high", "status": "on_time", "delay_seconds": 230}
{"route_id": 7467650, "route_name": "L306 Lakhiaita-Marif", "stop_id": 10166812511, "stop_name": "Pharmacie Al Bouchra", "latitude": 37.18847965, "longitude": 6.312437459, "vehicle_id": "VEH014", "trip_id": "TRIP_4960", "timestamp": "2025-07-01 17:59:36", "speed_kmh": 26.23, "eta_next_stop": "2025-07-01 18:03:28", "occupancy_level": "high", "status": "on_time", "delay_seconds": 514}
{"route_id": 7468727, "route_name": "L107 Lissasfa - Tacharouk", "stop_id": 5006028909, "stop_name": "Caf Flay", "latitude": 37.16467236, "longitude": 6.276152617, "vehicle_id": "VEH020", "trip_id": "TRIP_2588", "timestamp": "2025-07-01 18:17:23", "speed_kmh": 40.15, "eta_next_stop": "2025-07-01 18:20:30", "occupancy_level": "high", "status": "early", "delay_seconds": 581}
{"route_id": 7468727, "route_name": "L107 Lissasfa - Tacharouk", "stop_id": 10174422782, "stop_name": "Rsidence Assalam", "latitude": 37.17126474, "longitude": 6.315659311, "vehicle_id": "VEH007", "trip_id": "TRIP_5342", "timestamp": "2025-07-01 18:26:45", "speed_kmh": 23.2, "eta_next_stop": "2025-07-01 18:35:05", "occupancy_level": "low", "status": "on_time", "delay_seconds": 350}
{"route_id": 7468727, "route_name": "L107 Lissasfa - Tacharouk", "stop_id": 3827126014, "stop_name": "4me Arrondissement", "latitude": 37.13926014, "longitude": 6.325190458, "vehicle_id": "VEH003", "trip_id": "TRIP_4057", "timestamp": "2025-07-01 18:00:30", "speed_kmh": 31.62, "eta_next_stop": "2025-07-01 18:10:21", "occupancy_level": "medium", "status": "early", "delay_seconds": -62}
{"route_id": 7469243, "route_name": "L300 Bouskoura - Quartier Hpitaux", "stop_id": 5033697048, "stop_name": "Mosque El Hoda", "latitude": 37.15291228, "longitude": 6.28836218, "vehicle_id": "VEH020", "trip_id": "TRIP_2141", "timestamp": "2025-07-01 18:50:47", "speed_kmh": 10.42, "eta_next_stop": "2025-07-01 18:54:40", "occupancy_level": "low", "status": "on_time", "delay_seconds": 251}
{"route_id": 7469243, "route_name": "L300 Bouskoura - Quartier Hpitaux", "stop_id": 2238635740, "stop_name": "Riviera", "latitude": 37.15417001, "longitude": 6.265639552, "vehicle_id": "VEH014", "trip_id": "TRIP_4999", "timestamp": "2025-07-01 18:42:29", "speed_kmh": 24.92, "eta_next_stop": "2025-07-01 18:51:47", "occupancy_level": "high", "status": "early", "delay_seconds": 403}
{"route_id": 7469243, "route_name": "L300 Bouskoura - Quartier Hpitaux", "stop_id": 10218373575, "stop_name": "Protection Civile", "latitude": 37.1289984, "longitude": 6.279055961, "vehicle_id": "VEH002", "trip_id": "TRIP_4878", "timestamp": "2025-07-01 18:33:13", "speed_kmh": 39.85, "eta_next_stop": "2025-07-01 18:36:14", "occupancy_level": "high", "status": "on_time", "delay_seconds": 30}
{"route_id": 7469597, "route_name": "L301 Fouala - Hay Hassani", "stop_id": 5006003769, "stop_name": "CIMR", "latitude": 37.16604769, "longitude": 6.276589106, "vehicle_id": "VEH020", "trip_id": "TRIP_4617", "timestamp": "2025-07-01 18:51:29", "speed_kmh": 30.25, "eta_next_stop": "2025-07-01 18:53:43", "occupancy_level": "low", "status": "early", "delay_seconds": 494}
{"route_id": 7469597, "route_name": "L301 Fouala - Hay Hassani", "stop_id": 10220779573, "stop_name": "Ecole El Khalil", "latitude": 37.14233371, "longitude": 6.26299961, "vehicle_id": "VEH018", "trip_id": "TRIP_3095", "timestamp": "2025-07-01 18:46:43", "speed_kmh": 36.68, "eta_next_stop": "2025-07-01 18:48:04", "occupancy_level": "medium", "status": "on_time", "delay_seconds": 127}
{"route_id": 7469597, "route_name": "L301 Fouala - Hay Hassani", "stop_id": 10127222021, "stop_name": "Zerktouni", "latitude": 37.17010319, "longitude": 6.293673356, "vehicle_id": "VEH002", "trip_id": "TRIP_8980", "timestamp": "2025-07-01 18:22:34", "speed_kmh": 10.38, "eta_next_stop": "2025-07-01 18:24:13", "occupancy_level": "medium", "status": "delayed", "delay_seconds": 441}
{"route_id": 8122214, "route_name": "049 ::: Facults route d'El Jadida - Place de Sidi Maarouf", "stop_id": 12179983377, "stop_name": "Caf Atlas", "latitude": 37.12181359, "longitude": 6.22780168, "vehicle_id": "VEH003", "trip_id": "TRIP_4081", "timestamp": "2025-07-01 17:58:53", "speed_kmh": 39.26, "eta_next_stop": "2025-07-01 18:09:49", "occupancy_level": "low", "status": "on_time", "delay_seconds": 147}
{"route_id": 8122214, "route_name": "049 ::: Facults route d'El Jadida - Place de Sidi Maarouf", "stop_id": 5037058611, "stop_name": "St. Les Assfa", "latitude": 37.15205957, "longitude": 6.381272909, "vehicle_id": "VEH002", "trip_id": "TRIP_8614", "timestamp": "2025-07-01 18:50:37", "speed_kmh": 33.75, "eta_next_stop": "2025-07-01 18:52:11", "occupancy_level": "high", "status": "delayed", "delay_seconds": -63}
{"route_id": 8122214, "route_name": "049 ::: Facults route d'El Jadida - Place de Sidi Maarouf", "stop_id": 10167455856, "stop_name": "Rsidence Abwab Rabia", "latitude": 37.1423402, "longitude": 6.232197654, "vehicle_id": "VEH012", "trip_id": "TRIP_8027", "timestamp": "2025-07-01 18:47:26", "speed_kmh": 41.55, "eta_next_stop": "2025-07-01 18:56:38", "occupancy_level": "low", "status": "on_time", "delay_seconds": -166}
{"route_id": 8275661, "route_name": "Tram 2: An Diab > Sidi Bernoussi", "stop_id": 12184341202, "stop_name": "La Farandole", "latitude": 37.15993226, "longitude": 6.22932877, "vehicle_id": "VEH015", "trip_id": "TRIP_6982", "timestamp": "2025-07-01 18:47:45", "speed_kmh": 10.44, "eta_next_stop": "2025-07-01 18:57:19", "occupancy_level": "high", "status": "early", "delay_seconds": 599}
{"route_id": 8275661, "route_name": "Tram 2: An Diab > Sidi Bernoussi", "stop_id": 10163969091, "stop_name": "Camelia", "latitude": 37.11975263, "longitude": 6.237682493, "vehicle_id": "VEH004", "trip_id": "TRIP_6115", "timestamp": "2025-07-01 18:07:07", "speed_kmh": 19.77, "eta_next_stop": "2025-07-01 18:18:01", "occupancy_level": "medium", "status": "early", "delay_seconds": -280}
{"route_id": 8275661, "route_name": "Tram 2: An Diab > Sidi Bernoussi", "stop_id": 12206277387, "stop_name": "Etablissement Imane", "latitude": 37.14559854, "longitude": 6.356941321, "vehicle_id": "VEH001", "trip_id": "TRIP_9127", "timestamp": "2025-07-01 18:02:07", "speed_kmh": 30.93, "eta_next_stop": "2025-07-01 18:08:30", "occupancy_level": "medium", "status": "on_time", "delay_seconds": -6}
{"route_id": 9518676, "route_name": "Tram 2: Sidi Bernoussi > An Diab", "stop_id": 5033770311, "stop_name": "Dar Touzani Mohammed VI", "latitude": 37.13371954, "longitude": 6.308862117, "vehicle_id": "VEH004", "trip_id": "TRIP_2184", "timestamp": "2025-07-01 18:22:40", "speed_kmh": 43.62, "eta_next_stop": "2025-07-01 18:28:00", "occupancy_level": "medium", "status": "on_time", "delay_seconds": 403}
{"route_id": 9518676, "route_name": "Tram 2: Sidi Bernoussi > An Diab", "stop_id": 10171740745, "stop_name": "Doha", "latitude": 37.17908649, "longitude": 6.376007977, "vehicle_id": "VEH001", "trip_id": "TRIP_9294", "timestamp": "2025-07-01 18:07:54", "speed_kmh": 48.58, "eta_next_stop": "2025-07-01 18:11:38", "occupancy_level": "high", "status": "on_time", "delay_seconds": 540}
{"route_id": 9518676, "route_name": "Tram 2: Sidi Bernoussi > An Diab", "stop_id": 5079907787, "stop_name": "Jamila", "latitude": 37.12267907, "longitude": 6.318837818, "vehicle_id": "VEH013", "trip_id": "TRIP_3882", "timestamp": "2025-07-01 18:11:05", "speed_kmh": 11.37, "eta_next_stop": "2025-07-01 18:13:55", "occupancy_level": "high", "status": "on_time", "delay_seconds": -180}
{"route_id": 14780325, "route_name": "L19 Place Marchal - Terminus Riad El Oulfa 3", "stop_id": 12197540393, "stop_name": "cole Frres Safa", "latitude": 37.13400085, "longitude": 6.314617989, "vehicle_id": "VEH013", "trip_id": "TRIP_1475", "timestamp": "2025-07-01 18:40:09", "speed_kmh": 48.05, "eta_next_stop": "2025-07-01 18:45:52", "occupancy_level": "low", "status": "on_time", "delay_seconds": 484}
{"route_id": 14780325, "route_name": "L19 Place Marchal - Terminus Riad El Oulfa 3", "stop_id": 12191908989, "stop_name": "Boulangerie Al Khalil", "latitude": 37.13015491, "longitude": 6.299987664, "vehicle_id": "VEH003", "trip_id": "TRIP_9243", "timestamp": "2025-07-01 18:17:56", "speed_kmh": 43.96, "eta_next_stop": "2025-07-01 18:22:55", "occupancy_level": "low", "status": "on_time", "delay_seconds": -248}
{"route_id": 14780325, "route_name": "L19 Place Marchal - Terminus Riad El Oulfa 3", "stop_id": 12211898285, "stop_name": "Hassan El Alaoui", "latitude": 37.16391806, "longitude": 6.310705805, "vehicle_id": "VEH018", "trip_id": "TRIP_8788", "timestamp": "2025-07-01 18:51:42", "speed_kmh": 29.21, "eta_next_stop": "2025-07-01 19:00:01", "occupancy_level": "low", "status": "on_time", "delay_seconds": -242}
{"route_id": 14780326, "route_name": "L19 Terminus Riad El Oulfa 3 - Place Marchal", "stop_id": 12195597548, "stop_name": "Ann. Panoramique", "latitude": 37.16989745, "longitude": 6.3649418, "vehicle_id": "VEH014", "trip_id": "TRIP_5714", "timestamp": "2025-07-01 18:53:32", "speed_kmh": 26.43, "eta_next_stop": "2025-07-01 18:59:50", "occupancy_level": "low", "status": "on_time", "delay_seconds": -8}
{"route_id": 14780326, "route_name": "L19 Terminus Riad El Oulfa 3 - Place Marchal", "stop_id": 12179983376, "stop_name": "Etablissement Moussaoui", "latitude": 37.12173039, "longitude": 6.228130463, "vehicle_id": "VEH003", "trip_id": "TRIP_4766", "timestamp": "2025-07-01 18:43:37", "speed_kmh": 20.99, "eta_next_stop": "2025-07-01 18:44:59", "occupancy_level": "low", "status": "delayed", "delay_seconds": 134}
{"route_id": 14780326, "route_name": "L19 Terminus Riad El Oulfa 3 - Place Marchal", "stop_id": 12202628040, "stop_name": "Pharmacie Omaria", "latitude": 37.1164469, "longitude": 6.298026776, "vehicle_id": "VEH001", "trip_id": "TRIP_3123", "timestamp": "2025-07-01 18:55:01", "speed_kmh": 20.98, "eta_next_stop": "2025-07-01 19:05:57", "occupancy_level": "medium", "status": "on_time", "delay_seconds": -29}
{"route_id": 14784754, "route_name": "L31 Place Sraghna - Sidi Marouf(Ouled Haddou)", "stop_id": 12175753800, "stop_name": "Terminus Riad El Oulfa 3", "latitude": 37.12949803, "longitude": 6.202490835, "vehicle_id": "VEH020", "trip_id": "TRIP_4277", "timestamp": "2025-07-01 18:55:12", "speed_kmh": 14.96, "eta_next_stop": "2025-07-01 18:56:12", "occupancy_level": "high", "status": "on_time", "delay_seconds": -290}
{"route_id": 14784754, "route_name": "L31 Place Sraghna - Sidi Marouf(Ouled Haddou)", "stop_id": 10164017134, "stop_name": "Sicotrem", "latitude": 37.11011559, "longitude": 6.239548015, "vehicle_id": "VEH007", "trip_id": "TRIP_1192", "timestamp": "2025-07-01 18:22:19", "speed_kmh": 41.74, "eta_next_stop": "2025-07-01 18:27:04", "occupancy_level": "medium", "status": "delayed", "delay_seconds": 549}
{"route_id": 14784754, "route_name": "L31 Place Sraghna - Sidi Marouf(Ouled Haddou)", "stop_id": 5081812209, "stop_name": "Caf Planete House", "latitude": 37.13546026, "longitude": 6.346703002, "vehicle_id": "VEH017", "trip_id": "TRIP_2815", "timestamp": "2025-07-01 18:50:57", "speed_kmh": 48.11, "eta_next_stop": "2025-07-01 18:59:35", "occupancy_level": "medium", "status": "on_time", "delay_seconds": 482}
{"route_id": 14784755, "route_name": "L31 Sidi Marouf(Ouled Haddou)-Place Sraghna", "stop_id": 12189247170, "stop_name": "Terminus Mansouria", "latitude": 37.20920156, "longitude": 6.410686588, "vehicle_id": "VEH020", "trip_id": "TRIP_3095", "timestamp": "2025-07-01 17:57:14", "speed_kmh": 15.82, "eta_next_stop": "2025-07-01 18:02:46", "occupancy_level": "high", "status": "delayed", "delay_seconds": 444}
{"route_id": 14784755, "route_name": "L31 Sidi Marouf(Ouled Haddou)-Place Sraghna", "stop_id": 6967588088, "stop_name": "Carrires Centrales", "latitude": 37.17909065, "longitude": 6.331672095, "vehicle_id": "VEH008", "trip_id": "TRIP_1499", "timestamp": "2025-07-01 18:10:17", "speed_kmh": 26.81, "eta_next_stop": "2025-07-01 18:17:08", "occupancy_level": "high", "status": "delayed", "delay_seconds": -182}
{"route_id": 14784755, "route_name": "L31 Sidi Marouf(Ouled Haddou)-Place Sraghna", "stop_id": 4591435479, "stop_name": "Attacharouk", "latitude": 37.15909557, "longitude": 6.369583682, "vehicle_id": "VEH009", "trip_id": "TRIP_5901", "timestamp": "2025-07-01 18:00:32", "speed_kmh": 23.87, "eta_next_stop": "2025-07-01 18:10:37", "occupancy_level": "medium", "status": "early", "delay_seconds": 444}
{"route_id": 14785414, "route_name": "L35 Place Marchal - Oulfa", "stop_id": 10218373574, "stop_name": "Residence Al Mawlid", "latitude": 37.13359013, "longitude": 6.277957906, "vehicle_id": "VEH002", "trip_id": "TRIP_2243", "timestamp": "2025-07-01 18:11:07", "speed_kmh": 30.34, "eta_next_stop": "2025-07-01 18:17:26", "occupancy_level": "low", "status": "early", "delay_seconds": 416}
{"route_id": 14785414, "route_name": "L35 Place Marchal - Oulfa", "stop_id": 10166999151, "stop_name": "Ppinire De L'Ourika", "latitude": 37.09299084, "longitude": 6.269607637, "vehicle_id": "VEH011", "trip_id": "TRIP_5679", "timestamp": "2025-07-01 18:21:34", "speed_kmh": 23.21, "eta_next_stop": "2025-07-01 18:32:19", "occupancy_level": "high", "status": "early", "delay_seconds": 439}
{"route_id": 14785414, "route_name": "L35 Place Marchal - Oulfa", "stop_id": 12197540400, "stop_name": "Pharmacie Ibn Rochd", "latitude": 37.1370826, "longitude": 6.32323, "vehicle_id": "VEH019", "trip_id": "TRIP_7038", "timestamp": "2025-07-01 18:04:16", "speed_kmh": 29.44, "eta_next_stop": "2025-07-01 18:11:01", "occupancy_level": "low", "status": "delayed", "delay_seconds": 358}
{"route_id": 14785884, "route_name": "L39 El Mzabiyne - G.R. Ouled Ziane", "stop_id": 12193642237, "stop_name": "Mosque Zerhoun", "latitude": 37.15606797, "longitude": 6.37336604, "vehicle_id": "VEH017", "trip_id": "TRIP_7494", "timestamp": "2025-07-01 18:05:07", "speed_kmh": 26.72, "eta_next_stop": "2025-07-01 18:15:37", "occupancy_level": "medium", "status": "early", "delay_seconds": 73}
{"route_id": 14785884, "route_name": "L39 El Mzabiyne - G.R. Ouled Ziane", "stop_id": 12197558502, "stop_name": "Pharmacie Adiba", "latitude": 37.13555586, "longitude": 6.32124213, "vehicle_id": "VEH013", "trip_id": "TRIP_3887", "timestamp": "2025-07-01 18:25:02", "speed_kmh": 13.89, "eta_next_stop": "2025-07-01 18:30:29", "occupancy_level": "low", "status": "early", "delay_seconds": 475}
{"route_id": 14785884, "route_name": "L39 El Mzabiyne - G.R. Ouled Ziane", "stop_id": 12202628034, "stop_name": "Anwar Californie", "latitude": 37.10880702, "longitude": 6.288985063, "vehicle_id": "VEH016", "trip_id": "TRIP_4481", "timestamp": "2025-07-01 18:21:18", "speed_kmh": 21.65, "eta_next_stop": "2025-07-01 18:25:24", "occupancy_level": "medium", "status": "early", "delay_seconds": -139}
{"route_id": 14785885, "route_name": "L39 G.R. Ouled Ziane-El Mzabiyne", "stop_id": 12175374659, "stop_name": "Al Joulane", "latitude": 37.12496494, "longitude": 6.334961075, "vehicle_id": "VEH013", "trip_id": "TRIP_6349", "timestamp": "2025-07-01 18:43:39", "speed_kmh": 41.37, "eta_next_stop": "2025-07-01 18:52:19", "occupancy_level": "high", "status": "early", "delay_seconds": 1}
{"route_id": 14785885, "route_name": "L39 G.R. Ouled Ziane-El Mzabiyne", "stop_id": 5066751004, "stop_name": "ISTA Hay Hassani", "latitude": 37.14990116, "longitude": 6.221097169, "vehicle_id": "VEH005", "trip_id": "TRIP_4628", "timestamp": "2025-07-01 18:00:31", "speed_kmh": 43.46, "eta_next_stop": "2025-07-01 18:10:45", "occupancy_level": "high", "status": "early", "delay_seconds": -198}
{"route_id": 14785885, "route_name": "L39 G.R. Ouled Ziane-El Mzabiyne", "stop_id": 12209708081, "stop_name": "Florida", "latitude": 37.16701587, "longitude": 6.333571047, "vehicle_id": "VEH014", "trip_id": "TRIP_2838", "timestamp": "2025-07-01 18:49:50", "speed_kmh": 26.74, "eta_next_stop": "2025-07-01 19:00:12", "occupancy_level": "high", "status": "delayed", "delay_seconds": 415}
{"route_id": 14785923, "route_name": "L50 Errahma - C. Sidi Belyout", "stop_id": 12179426918, "stop_name": "Rsidence Chifae", "latitude": 37.16719003, "longitude": 6.268854246, "vehicle_id": "VEH020", "trip_id": "TRIP_7269", "timestamp": "2025-07-01 18:02:19", "speed_kmh": 20.04, "eta_next_stop": "2025-07-01 18:08:10", "occupancy_level": "high", "status": "delayed", "delay_seconds": 288}
{"route_id": 14785923, "route_name": "L50 Errahma - C. Sidi Belyout", "stop_id": 12182135877, "stop_name": "Oued Laou", "latitude": 37.14313437, "longitude": 6.234732728, "vehicle_id": "VEH004", "trip_id": "TRIP_7683", "timestamp": "2025-07-01 18:28:33", "speed_kmh": 14.07, "eta_next_stop": "2025-07-01 18:32:31", "occupancy_level": "low", "status": "delayed", "delay_seconds": -55}
{"route_id": 14785923, "route_name": "L50 Errahma - C. Sidi Belyout", "stop_id": 10164174149, "stop_name": "Complexe Educative Hassan II", "latitude": 37.14189061, "longitude": 6.310989294, "vehicle_id": "VEH002", "trip_id": "TRIP_9550", "timestamp": "2025-07-01 18:31:33", "speed_kmh": 49.31, "eta_next_stop": "2025-07-01 18:41:51", "occupancy_level": "medium", "status": "early", "delay_seconds": 312}
{"route_id": 14785924, "route_name": "L50 C. Sidi Belyout-Errahma", "stop_id": 10174422775, "stop_name": "Hay Salama", "latitude": 37.15076031, "longitude": 6.33850872, "vehicle_id": "VEH018", "trip_id": "TRIP_2491", "timestamp": "2025-07-01 18:05:39", "speed_kmh": 37.87, "eta_next_stop": "2025-07-01 18:15:32", "occupancy_level": "medium", "status": "delayed", "delay_seconds": 394}
{"route_id": 14785924, "route_name": "L50 C. Sidi Belyout-Errahma", "stop_id": 10218931822, "stop_name": "Dcomobil", "latitude": 37.14527357, "longitude": 6.192087018, "vehicle_id": "VEH017", "trip_id": "TRIP_1174", "timestamp": "2025-07-01 18:26:54", "speed_kmh": 39.91, "eta_next_stop": "2025-07-01 18:29:07", "occupancy_level": "medium", "status": "early", "delay_seconds": 68}
{"route_id": 14785924, "route_name": "L50 C. Sidi Belyout-Errahma", "stop_id": 428612131, "stop_name": "Derb Milan", "latitude": 37.15476755, "longitude": 6.316799219, "vehicle_id": "VEH003", "trip_id": "TRIP_3449", "timestamp": "2025-07-01 18:09:52", "speed_kmh": 45.84, "eta_next_stop": "2025-07-01 18:20:39", "occupancy_level": "medium", "status": "delayed", "delay_seconds": 257}
{"route_id": 14786084, "route_name": "L51 G. R. Ouled Ziane-Errahma", "stop_id": 10963462858, "stop_name": "Mohamed Joudar", "latitude": 37.15265824, "longitude": 6.35857174, "vehicle_id": "VEH014", "trip_id": "TRIP_9115", "timestamp": "2025-07-01 18:02:05", "speed_kmh": 23.03, "eta_next_stop": "2025-07-01 18:11:20", "occupancy_level": "medium", "status": "early", "delay_seconds": 506}
{"route_id": 14786084, "route_name": "L51 G. R. Ouled Ziane-Errahma", "stop_id": 4986977260, "stop_name": "Usine de Th", "latitude": 37.1895999, "longitude": 6.376703877, "vehicle_id": "VEH008", "trip_id": "TRIP_9029", "timestamp": "2025-07-01 18:51:29", "speed_kmh": 30.62, "eta_next_stop": "2025-07-01 19:01:32", "occupancy_level": "low", "status": "delayed", "delay_seconds": 192}
{"route_id": 14786084, "route_name": "L51 G. R. Ouled Ziane-Errahma", "stop_id": 6204178204, "stop_name": "Technoparc", "latitude": 37.12054664, "longitude": 6.264886938, "vehicle_id": "VEH011", "trip_id": "TRIP_3891", "timestamp": "2025-07-01 18:38:40", "speed_kmh": 12.17, "eta_next_stop": "2025-07-01 18:45:07", "occupancy_level": "high", "status": "delayed", "delay_seconds": 269}
{"route_id": 14786085, "route_name": "L51 Errahma-G. R. Ouled Ziane", "stop_id": 1326431614, "stop_name": "Lotissement Saklia", "latitude": 37.14733909, "longitude": 6.212035292, "vehicle_id": "VEH014", "trip_id": "TRIP_3315", "timestamp": "2025-07-01 17:56:36", "speed_kmh": 29.09, "eta_next_stop": "2025-07-01 18:07:31", "occupancy_level": "high", "status": "delayed", "delay_seconds": 104}
{"route_id": 14786085, "route_name": "L51 Errahma-G. R. Ouled Ziane", "stop_id": 6429440059, "stop_name": "Derb Sultan", "latitude": 37.15603846, "longitude": 6.303218112, "vehicle_id": "VEH003", "trip_id": "TRIP_4668", "timestamp": "2025-07-01 17:57:34", "speed_kmh": 38.99, "eta_next_stop": "2025-07-01 18:06:31", "occupancy_level": "low", "status": "delayed", "delay_seconds": 48}
{"route_id": 14786085, "route_name": "L51 Errahma-G. R. Ouled Ziane", "stop_id": 4592227167, "stop_name": "Hpital Sidi Moumen", "latitude": 37.16190397, "longitude": 6.375665551, "vehicle_id": "VEH005", "trip_id": "TRIP_4246", "timestamp": "2025-07-01 18:43:21", "speed_kmh": 12.18, "eta_next_stop": "2025-07-01 18:45:21", "occupancy_level": "low", "status": "delayed", "delay_seconds": 286}
{"route_id": 14866500, "route_name": "L604 Place Sraghna-Al Hamd", "stop_id": 12208782253, "stop_name": "Sakani", "latitude": 37.19255317, "longitude": 6.407958825, "vehicle_id": "VEH009", "trip_id": "TRIP_8084", "timestamp": "2025-07-01 18:07:47", "speed_kmh": 38.93, "eta_next_stop": "2025-07-01 18:10:29", "occupancy_level": "high", "status": "on_time", "delay_seconds": 161}
{"route_id": 14866500, "route_name": "L604 Place Sraghna-Al Hamd", "stop_id": 5029883684, "stop_name": "Clinique Val Anfa", "latitude": 37.17568163, "longitude": 6.249452701, "vehicle_id": "VEH015", "trip_id": "TRIP_9010", "timestamp": "2025-07-01 18:25:39", "speed_kmh": 19.51, "eta_next_stop": "2025-07-01 18:30:47", "occupancy_level": "high", "status": "on_time", "delay_seconds": 533}
{"route_id": 14866500, "route_name": "L604 Place Sraghna-Al Hamd", "stop_id": 10172577282, "stop_name": "Hay Ennaser", "latitude": 37.11394289, "longitude": 6.325206512, "vehicle_id": "VEH003", "trip_id": "TRIP_1893", "timestamp": "2025-07-01 18:02:56", "speed_kmh": 18.91, "eta_next_stop": "2025-07-01 18:11:56", "occupancy_level": "low", "status": "delayed", "delay_seconds": 479}
{"route_id": 14866501, "route_name": "L604 Al Hamd-Place Sraghna", "stop_id": 5316881642, "stop_name": "Machroua", "latitude": 37.17411153, "longitude": 6.34045251, "vehicle_id": "VEH019", "trip_id": "TRIP_7300", "timestamp": "2025-07-01 18:01:51", "speed_kmh": 35.72, "eta_next_stop": "2025-07-01 18:04:28", "occupancy_level": "medium", "status": "delayed", "delay_seconds": 60}
{"route_id": 14866501, "route_name": "L604 Al Hamd-Place Sraghna", "stop_id": 10176008808, "stop_name": "Ecole Georges Bizet", "latitude": 37.16157922, "longitude": 6.24871187, "vehicle_id": "VEH006", "trip_id": "TRIP_5660", "timestamp": "2025-07-01 18:51:03", "speed_kmh": 23.7, "eta_next_stop": "2025-07-01 18:56:20", "occupancy_level": "medium", "status": "on_time", "delay_seconds": 8}
{"route_id": 14866501, "route_name": "L604 Al Hamd-Place Sraghna", "stop_id": 5033697048, "stop_name": "Mosque El Hoda", "latitude": 37.15291228, "longitude": 6.28836218, "vehicle_id": "VEH019", "trip_id": "TRIP_5991", "timestamp": "2025-07-01 18:23:00", "speed_kmh": 28.23, "eta_next_stop": "2025-07-01 18:32:45", "occupancy_level": "high", "status": "on_time", "delay_seconds": 216}
{"route_id": 14867026, "route_name": "L600 Place Sidi Maarouf -Place Al Hamed", "stop_id": 1849822869, "stop_name": "Rond Point Morocco Mall", "latitude": 37.15323463, "longitude": 6.205704823, "vehicle_id": "VEH011", "trip_id": "TRIP_3350", "timestamp": "2025-07-01 18:05:07", "speed_kmh": 10.26, "eta_next_stop": "2025-07-01 18:13:39", "occupancy_level": "medium", "status": "on_time", "delay_seconds": -39}
{"route_id": 14867026, "route_name": "L600 Place Sidi Maarouf -Place Al Hamed", "stop_id": 5079281467, "stop_name": "Tariq Bno Zyad", "latitude": 37.15974701, "longitude": 6.275688779, "vehicle_id": "VEH011", "trip_id": "TRIP_7004", "timestamp": "2025-07-01 18:46:27", "speed_kmh": 37.24, "eta_next_stop": "2025-07-01 18:47:46", "occupancy_level": "medium", "status": "on_time", "delay_seconds": 176}
{"route_id": 14867026, "route_name": "L600 Place Sidi Maarouf -Place Al Hamed", "stop_id": 5074972706, "stop_name": "Ligue Arabe", "latitude": 37.17256358, "longitude": 6.279526034, "vehicle_id": "VEH008", "trip_id": "TRIP_9463", "timestamp": "2025-07-01 18:36:38", "speed_kmh": 21.85, "eta_next_stop": "2025-07-01 18:42:06", "occupancy_level": "high", "status": "early", "delay_seconds": 287}
{"route_id": 14867027, "route_name": "L600 Place Al Hamed-Place Sidi Maarouf", "stop_id": 10174422775, "stop_name": "Hay Salama", "latitude": 37.15076031, "longitude": 6.33850872, "vehicle_id": "VEH008", "trip_id": "TRIP_1855", "timestamp": "2025-07-01 18:47:02", "speed_kmh": 12.5, "eta_next_stop": "2025-07-01 18:52:44", "occupancy_level": "medium", "status": "on_time", "delay_seconds": 340}
{"route_id": 14867027, "route_name": "L600 Place Al Hamed-Place Sidi Maarouf", "stop_id": 5040054086, "stop_name": "Hay Lmasjid  2", "latitude": 37.14474955, "longitude": 6.295474484, "vehicle_id": "VEH006", "trip_id": "TRIP_6473", "timestamp": "2025-07-01 18:39:15", "speed_kmh": 28.01, "eta_next_stop": "2025-07-01 18:43:35", "occupancy_level": "high", "status": "early", "delay_seconds": 465}
{"route_id": 14867027, "route_name": "L600 Place Al Hamed-Place Sidi Maarouf", "stop_id": 12208949578, "stop_name": "Ben J'Dia", "latitude": 37.16944076, "longitude": 6.291339429, "vehicle_id": "VEH011", "trip_id": "TRIP_5381", "timestamp": "2025-07-01 18:56:07", "speed_kmh": 12.56, "eta_next_stop": "2025-07-01 19:03:07", "occupancy_level": "low", "status": "early", "delay_seconds": 451}
{"route_id": 14873787, "route_name": "L143 Tacharouk-Ferara", "stop_id": 12184341207, "stop_name": "Sidi Al Khadir", "latitude": 37.15159563, "longitude": 6.221187055, "vehicle_id": "VEH017", "trip_id": "TRIP_5313", "timestamp": "2025-07-01 18:56:08", "speed_kmh": 15.56, "eta_next_stop": "2025-07-01 19:01:19", "occupancy_level": "low", "status": "delayed", "delay_seconds": 205}
{"route_id": 14873787, "route_name": "L143 Tacharouk-Ferara", "stop_id": 2245014368, "stop_name": "St-Vlodrome", "latitude": 37.17548128, "longitude": 6.256311619, "vehicle_id": "VEH001", "trip_id": "TRIP_7143", "timestamp": "2025-07-01 18:31:47", "speed_kmh": 43.38, "eta_next_stop": "2025-07-01 18:33:14", "occupancy_level": "medium", "status": "delayed", "delay_seconds": 358}
{"route_id": 14873787, "route_name": "L143 Tacharouk-Ferara", "stop_id": 6429440061, "stop_name": "Cimetire Achouhada", "latitude": 37.16124513, "longitude": 6.323025125, "vehicle_id": "VEH020", "trip_id": "TRIP_2392", "timestamp": "2025-07-01 18:37:04", "speed_kmh": 11.3, "eta_next_stop": "2025-07-01 18:40:22", "occupancy_level": "low", "status": "delayed", "delay_seconds": 178}
{"route_id": 14885633, "route_name": "L68 Ouled Mellouk-Hay Salam", "stop_id": 12197743490, "stop_name": "Mosque Andalous", "latitude": 37.17484962, "longitude": 6.393425956, "vehicle_id": "VEH007", "trip_id": "TRIP_1706", "timestamp": "2025-07-01 17:58:21", "speed_kmh": 14.81, "eta_next_stop": "2025-07-01 18:02:01", "occupancy_level": "low", "status": "early", "delay_seconds": -224}
{"route_id": 14885633, "route_name": "L68 Ouled Mellouk-Hay Salam", "stop_id": 12193026726, "stop_name": "Hay Najah", "latitude": 37.09051926, "longitude": 6.252801967, "vehicle_id": "VEH018", "trip_id": "TRIP_3736", "timestamp": "2025-07-01 18:33:00", "speed_kmh": 47.94, "eta_next_stop": "2025-07-01 18:43:35", "occupancy_level": "high", "status": "on_time", "delay_seconds": 197}
{"route_id": 14885633, "route_name": "L68 Ouled Mellouk-Hay Salam", "stop_id": 10215081156, "stop_name": "Trmie d'Azbane", "latitude": 37.1159831, "longitude": 6.239265098, "vehicle_id": "VEH019", "trip_id": "TRIP_9844", "timestamp": "2025-07-01 17:57:32", "speed_kmh": 10.04, "eta_next_stop": "2025-07-01 18:04:47", "occupancy_level": "low", "status": "early", "delay_seconds": 237}
{"route_id": 14885634, "route_name": "L68 Hay Salam-Ouled Mellouk", "stop_id": 5054952750, "stop_name": "Hay Zoubir", "latitude": 37.11991399, "longitude": 6.222914372, "vehicle_id": "VEH011", "trip_id": "TRIP_7016", "timestamp": "2025-07-01 18:47:42", "speed_kmh": 23.27, "eta_next_stop": "2025-07-01 18:57:55", "occupancy_level": "low", "status": "delayed", "delay_seconds": -89}
{"route_id": 14885634, "route_name": "L68 Hay Salam-Ouled Mellouk", "stop_id": 12182975463, "stop_name": "Stade Pre-Jgo", "latitude": 37.13836622, "longitude": 6.253410637, "vehicle_id": "VEH008", "trip_id": "TRIP_5086", "timestamp": "2025-07-01 17:57:27", "speed_kmh": 35.62, "eta_next_stop": "2025-07-01 18:05:59", "occupancy_level": "medium", "status": "delayed", "delay_seconds": 400}
{"route_id": 14885634, "route_name": "L68 Hay Salam-Ouled Mellouk", "stop_id": 10166812501, "stop_name": "Lyce Baroudi", "latitude": 37.19226199, "longitude": 6.341937825, "vehicle_id": "VEH002", "trip_id": "TRIP_3361", "timestamp": "2025-07-01 18:29:25", "speed_kmh": 25.62, "eta_next_stop": "2025-07-01 18:38:03", "occupancy_level": "low", "status": "early", "delay_seconds": 187}
{"route_id": 14885803, "route_name": "L79 Place Sraghna-Sidi Moumen", "stop_id": 5041500474, "stop_name": "Caf Autrement", "latitude": 37.11768355, "longitude": 6.309766644, "vehicle_id": "VEH014", "trip_id": "TRIP_7951", "timestamp": "2025-07-01 18:43:16", "speed_kmh": 14.22, "eta_next_stop": "2025-07-01 18:51:33", "occupancy_level": "low", "status": "on_time", "delay_seconds": 538}
{"route_id": 14885803, "route_name": "L79 Place Sraghna-Sidi Moumen", "stop_id": 12189247152, "stop_name": "Astral", "latitude": 37.19577322, "longitude": 6.326665815, "vehicle_id": "VEH013", "trip_id": "TRIP_8556", "timestamp": "2025-07-01 18:03:21", "speed_kmh": 20.99, "eta_next_stop": "2025-07-01 18:11:50", "occupancy_level": "medium", "status": "early", "delay_seconds": 121}
{"route_id": 14885803, "route_name": "L79 Place Sraghna-Sidi Moumen", "stop_id": 5067639206, "stop_name": "Centre Cul. Socio.", "latitude": 37.10457231, "longitude": 6.25327916, "vehicle_id": "VEH015", "trip_id": "TRIP_8427", "timestamp": "2025-07-01 18:43:03", "speed_kmh": 34.52, "eta_next_stop": "2025-07-01 18:50:07", "occupancy_level": "medium", "status": "on_time", "delay_seconds": -222}
{"route_id": 14885804, "route_name": "L79 Sidi Moumen-Place Sraghna", "stop_id": 10176016680, "stop_name": "Marche de Gros", "latitude": 37.13644914, "longitude": 6.334064854, "vehicle_id": "VEH007", "trip_id": "TRIP_1103", "timestamp": "2025-07-01 18:39:23", "speed_kmh": 12.28, "eta_next_stop": "2025-07-01 18:47:59", "occupancy_level": "high", "status": "early", "delay_seconds": 362}
{"route_id": 14885804, "route_name": "L79 Sidi Moumen-Place Sraghna", "stop_id": 3843048984, "stop_name": "Hay Chifa", "latitude": 37.15593448, "longitude": 6.313547405, "vehicle_id": "VEH001", "trip_id": "TRIP_3401", "timestamp": "2025-07-01 18:13:42", "speed_kmh": 35.94, "eta_next_stop": "2025-07-01 18:20:58", "occupancy_level": "low", "status": "delayed", "delay_seconds": -248}
{"route_id": 14885804, "route_name": "L79 Sidi Moumen-Place Sraghna", "stop_id": 5050753023, "stop_name": "ISTL", "latitude": 37.19314846, "longitude": 6.346469336, "vehicle_id": "VEH014", "trip_id": "TRIP_6015", "timestamp": "2025-07-01 18:35:48", "speed_kmh": 35.68, "eta_next_stop": "2025-07-01 18:40:16", "occupancy_level": "high", "status": "delayed", "delay_seconds": 577}
{"route_id": 14889095, "route_name": "L84 BD. Houphout Boigny-Farah Salam", "stop_id": 10218102764, "stop_name": NaN, "latitude": 37.14519609, "longitude": 6.274125211, "vehicle_id": "VEH003", "trip_id": "TRIP_7257", "timestamp": "2025-07-01 18:37:02", "speed_kmh": 30.14, "eta_next_stop": "2025-07-01 18:40:05", "occupancy_level": "high", "status": "delayed", "delay_seconds": 268}
{"route_id": 14889095, "route_name": "L84 BD. Houphout Boigny-Farah Salam", "stop_id": 429316559, "stop_name": "Clinique Ben Souda", "latitude": 37.17065277, "longitude": 6.250626263, "vehicle_id": "VEH015", "trip_id": "TRIP_1504", "timestamp": "2025-07-01 18:44:16", "speed_kmh": 16.45, "eta_next_stop": "2025-07-01 18:54:06", "occupancy_level": "medium", "status": "early", "delay_seconds": 190}
{"route_id": 14889095, "route_name": "L84 BD. Houphout Boigny-Farah Salam", "stop_id": 10166797923, "stop_name": "Hospital Al Mansour", "latitude": 37.1960963, "longitude": 6.387103315, "vehicle_id": "VEH001", "trip_id": "TRIP_3498", "timestamp": "2025-07-01 18:49:56", "speed_kmh": 34.78, "eta_next_stop": "2025-07-01 18:51:13", "occupancy_level": "low", "status": "early", "delay_seconds": -48}
{"route_id": 14935305, "route_name": "L307 Lissasfa - Victoria", "stop_id": 2135428347, "stop_name": "Abattoir", "latitude": 37.13211125, "longitude": 6.345824045, "vehicle_id": "VEH004", "trip_id": "TRIP_8614", "timestamp": "2025-07-01 18:14:34", "speed_kmh": 35.19, "eta_next_stop": "2025-07-01 18:23:54", "occupancy_level": "low", "status": "delayed", "delay_seconds": 258}
{"route_id": 14935305, "route_name": "L307 Lissasfa - Victoria", "stop_id": 5076830784, "stop_name": "Terminus T1 Sidi Moumen", "latitude": 37.17577986, "longitude": 6.392625425, "vehicle_id": "VEH002", "trip_id": "TRIP_2960", "timestamp": "2025-07-01 18:33:01", "speed_kmh": 30.68, "eta_next_stop": "2025-07-01 18:37:52", "occupancy_level": "medium", "status": "on_time", "delay_seconds": 564}
{"route_id": 14935305, "route_name": "L307 Lissasfa - Victoria", "stop_id": 12211898283, "stop_name": "La Ferraille", "latitude": 37.16793817, "longitude": 6.315571, "vehicle_id": "VEH014", "trip_id": "TRIP_2212", "timestamp": "2025-07-01 18:38:13", "speed_kmh": 46.72, "eta_next_stop": "2025-07-01 18:47:16", "occupancy_level": "high", "status": "delayed", "delay_seconds": 543}
{"route_id": 14935306, "route_name": "L307 Victoria-Lissasfa", "stop_id": 12197420847, "stop_name": "Pharmacie Dalia", "latitude": 37.13139022, "longitude": 6.285032133, "vehicle_id": "VEH018", "trip_id": "TRIP_4996", "timestamp": "2025-07-01 18:17:08", "speed_kmh": 29.49, "eta_next_stop": "2025-07-01 18:26:59", "occupancy_level": "low", "status": "early", "delay_seconds": -105}
{"route_id": 14935306, "route_name": "L307 Victoria-Lissasfa", "stop_id": 3827125889, "stop_name": "March Ain Choc", "latitude": 37.12826043, "longitude": 6.302339192, "vehicle_id": "VEH001", "trip_id": "TRIP_1926", "timestamp": "2025-07-01 18:11:31", "speed_kmh": 31.74, "eta_next_stop": "2025-07-01 18:13:28", "occupancy_level": "high", "status": "delayed", "delay_seconds": 587}
{"route_id": 14935306, "route_name": "L307 Victoria-Lissasfa", "stop_id": 10167875435, "stop_name": "Mosque Azhar", "latitude": 37.12692858, "longitude": 6.211321246, "vehicle_id": "VEH003", "trip_id": "TRIP_3420", "timestamp": "2025-07-01 18:56:34", "speed_kmh": 44.8, "eta_next_stop": "2025-07-01 18:58:34", "occupancy_level": "medium", "status": "delayed", "delay_seconds": 416}
{"route_id": 14935993, "route_name": "L309 Marif (Bachkou) - Bouskoura (Andalous)", "stop_id": 10180916756, "stop_name": "Boulevard Chefchaouni", "latitude": 37.21937594, "longitude": 6.391350704, "vehicle_id": "VEH017", "trip_id": "TRIP_9641", "timestamp": "2025-07-01 18:48:51", "speed_kmh": 45.07, "eta_next_stop": "2025-07-01 18:57:47", "occupancy_level": "medium", "status": "on_time", "delay_seconds": 18}
{"route_id": 14935993, "route_name": "L309 Marif (Bachkou) - Bouskoura (Andalous)", "stop_id": 4987001404, "stop_name": "Adarissa", "latitude": 37.16532034, "longitude": 6.352870714, "vehicle_id": "VEH003", "trip_id": "TRIP_3016", "timestamp": "2025-07-01 17:56:21", "speed_kmh": 10.24, "eta_next_stop": "2025-07-01 17:59:21", "occupancy_level": "medium", "status": "on_time", "delay_seconds": 549}
{"route_id": 14935993, "route_name": "L309 Marif (Bachkou) - Bouskoura (Andalous)", "stop_id": 10177322074, "stop_name": "Ecole Al Akhawayn", "latitude": 37.14535149, "longitude": 6.330758842, "vehicle_id": "VEH002", "trip_id": "TRIP_4287", "timestamp": "2025-07-01 17:58:45", "speed_kmh": 47.03, "eta_next_stop": "2025-07-01 18:06:45", "occupancy_level": "high", "status": "on_time", "delay_seconds": 510}
{"route_id": 14935994, "route_name": "L309 Bouskoura (Andalous)-Marif (Bachkou)", "stop_id": 10164174151, "stop_name": "Wafa Assurances", "latitude": 37.12480035, "longitude": 6.317851478, "vehicle_id": "VEH001", "trip_id": "TRIP_4118", "timestamp": "2025-07-01 18:31:15", "speed_kmh": 29.85, "eta_next_stop": "2025-07-01 18:36:17", "occupancy_level": "high", "status": "on_time", "delay_seconds": -267}
{"route_id": 14935994, "route_name": "L309 Bouskoura (Andalous)-Marif (Bachkou)", "stop_id": 6204178211, "stop_name": "Technoparc", "latitude": 37.12032224, "longitude": 6.264823671, "vehicle_id": "VEH017", "trip_id": "TRIP_5370", "timestamp": "2025-07-01 18:39:56", "speed_kmh": 37.9, "eta_next_stop": "2025-07-01 18:50:16", "occupancy_level": "low", "status": "delayed", "delay_seconds": -207}
{"route_id": 14935994, "route_name": "L309 Bouskoura (Andalous)-Marif (Bachkou)", "stop_id": 10171981350, "stop_name": "Lyce Abdelkhalek Torres", "latitude": 37.18032189, "longitude": 6.384152347, "vehicle_id": "VEH018", "trip_id": "TRIP_7252", "timestamp": "2025-07-01 18:25:02", "speed_kmh": 37.62, "eta_next_stop": "2025-07-01 18:27:53", "occupancy_level": "high", "status": "early", "delay_seconds": 309}
{"route_id": 14940037, "route_name": "L109 Gare Routire Ouled Ziane-Hay Zoubir", "stop_id": 12207826693, "stop_name": "Oued Al Makhazine", "latitude": 37.18096514, "longitude": 6.276683656, "vehicle_id": "VEH002", "trip_id": "TRIP_4341", "timestamp": "2025-07-01 18:53:31", "speed_kmh": 31.78, "eta_next_stop": "2025-07-01 19:00:00", "occupancy_level": "high", "status": "on_time", "delay_seconds": 314}
{"route_id": 14940037, "route_name": "L109 Gare Routire Ouled Ziane-Hay Zoubir", "stop_id": 459751806, "stop_name": "Caf Grill Antik", "latitude": 37.11149498, "longitude": 6.284962378, "vehicle_id": "VEH016", "trip_id": "TRIP_7671", "timestamp": "2025-07-01 18:24:39", "speed_kmh": 47.54, "eta_next_stop": "2025-07-01 18:29:51", "occupancy_level": "low", "status": "delayed", "delay_seconds": 316}
{"route_id": 14940037, "route_name": "L109 Gare Routire Ouled Ziane-Hay Zoubir", "stop_id": 5005720475, "stop_name": "Terminus Lissasfa ", "latitude": 37.10972821, "longitude": 6.231335697, "vehicle_id": "VEH006", "trip_id": "TRIP_5064", "timestamp": "2025-07-01 18:40:43", "speed_kmh": 15.27, "eta_next_stop": "2025-07-01 18:42:44", "occupancy_level": "high", "status": "early", "delay_seconds": -123}
{"route_id": 14940038, "route_name": "L109 Hay Zoubir-Gare Routire Ouled Ziane", "stop_id": 3843049012, "stop_name": "Clinique Dar Salam", "latitude": 37.14458083, "longitude": 6.282072424, "vehicle_id": "VEH006", "trip_id": "TRIP_3343", "timestamp": "2025-07-01 18:33:14", "speed_kmh": 40.32, "eta_next_stop": "2025-07-01 18:39:23", "occupancy_level": "low", "status": "on_time", "delay_seconds": 431}
{"route_id": 14940038, "route_name": "L109 Hay Zoubir-Gare Routire Ouled Ziane", "stop_id": 12182135856, "stop_name": "Oulms Terminus", "latitude": 37.15475224, "longitude": 6.254290694, "vehicle_id": "VEH013", "trip_id": "TRIP_5098", "timestamp": "2025-07-01 18:17:11", "speed_kmh": 44.82, "eta_next_stop": "2025-07-01 18:24:45", "occupancy_level": "medium", "status": "on_time", "delay_seconds": 394}
{"route_id": 14940038, "route_name": "L109 Hay Zoubir-Gare Routire Ouled Ziane", "stop_id": 12193642229, "stop_name": "Residence Charaf", "latitude": 37.17255618, "longitude": 6.367520184, "vehicle_id": "VEH016", "trip_id": "TRIP_4679", "timestamp": "2025-07-01 18:05:07", "speed_kmh": 13.36, "eta_next_stop": "2025-07-01 18:11:47", "occupancy_level": "medium", "status": "on_time", "delay_seconds": 357}
{"route_id": 14942770, "route_name": "L13 Sidi Belyout (Bd d'Anfa)-Terminus Kasbat Al amine", "stop_id": 5071930368, "stop_name": "Lyce Lyautey", "latitude": 37.18144514, "longitude": 6.269203194, "vehicle_id": "VEH014", "trip_id": "TRIP_9083", "timestamp": "2025-07-01 18:45:45", "speed_kmh": 19.44, "eta_next_stop": "2025-07-01 18:52:27", "occupancy_level": "low", "status": "delayed", "delay_seconds": -178}
{"route_id": 14942770, "route_name": "L13 Sidi Belyout (Bd d'Anfa)-Terminus Kasbat Al amine", "stop_id": 5064503733, "stop_name": "PTT Bir Anzarane", "latitude": 37.16408185, "longitude": 6.265040199, "vehicle_id": "VEH011", "trip_id": "TRIP_2277", "timestamp": "2025-07-01 18:00:24", "speed_kmh": 34.4, "eta_next_stop": "2025-07-01 18:05:51", "occupancy_level": "low", "status": "delayed", "delay_seconds": 145}
{"route_id": 14942770, "route_name": "L13 Sidi Belyout (Bd d'Anfa)-Terminus Kasbat Al amine", "stop_id": 5032109182, "stop_name": "C.A. Tensift", "latitude": 37.1333841, "longitude": 6.220971943, "vehicle_id": "VEH017", "trip_id": "TRIP_9474", "timestamp": "2025-07-01 18:52:51", "speed_kmh": 48.62, "eta_next_stop": "2025-07-01 18:59:45", "occupancy_level": "low", "status": "delayed", "delay_seconds": 79}
{"route_id": 14942771, "route_name": "L13 Terminus Kasbat Al amine-Sidi Belyout (Bd d'Anfa)", "stop_id": 2249521485, "stop_name": "Anapec SM", "latitude": 37.16674378, "longitude": 6.351590807, "vehicle_id": "VEH010", "trip_id": "TRIP_5138", "timestamp": "2025-07-01 18:17:12", "speed_kmh": 21.34, "eta_next_stop": "2025-07-01 18:24:56", "occupancy_level": "high", "status": "delayed", "delay_seconds": -109}
{"route_id": 14942771, "route_name": "L13 Terminus Kasbat Al amine-Sidi Belyout (Bd d'Anfa)", "stop_id": 10215081158, "stop_name": "Palais Des Ambassadeurs", "latitude": 37.10290913, "longitude": 6.222403364, "vehicle_id": "VEH007", "trip_id": "TRIP_2155", "timestamp": "2025-07-01 18:09:35", "speed_kmh": 28.0, "eta_next_stop": "2025-07-01 18:17:48", "occupancy_level": "medium", "status": "delayed", "delay_seconds": -50}
{"route_id": 14942771, "route_name": "L13 Terminus Kasbat Al amine-Sidi Belyout (Bd d'Anfa)", "stop_id": 10127222045, "stop_name": "Avenue du 10 Mars 1982", "latitude": 37.1341241, "longitude": 6.345349794, "vehicle_id": "VEH013", "trip_id": "TRIP_8114", "timestamp": "2025-07-01 18:29:12", "speed_kmh": 30.36, "eta_next_stop": "2025-07-01 18:31:22", "occupancy_level": "high", "status": "on_time", "delay_seconds": 299}
{"route_id": 18041838, "route_name": "BW1 Salmia 2-Omar Al Khayam", "stop_id": 5033954238, "stop_name": "Terrain Larbi Zaouli", "latitude": 37.18438021, "longitude": 6.350105279, "vehicle_id": "VEH003", "trip_id": "TRIP_1528", "timestamp": "2025-07-01 17:56:39", "speed_kmh": 46.99, "eta_next_stop": "2025-07-01 18:05:34", "occupancy_level": "low", "status": "on_time", "delay_seconds": 82}
{"route_id": 18041838, "route_name": "BW1 Salmia 2-Omar Al Khayam", "stop_id": 12209708079, "stop_name": "Kissariat Aziza", "latitude": 37.16817495, "longitude": 6.33756209, "vehicle_id": "VEH008", "trip_id": "TRIP_7467", "timestamp": "2025-07-01 18:02:15", "speed_kmh": 29.29, "eta_next_stop": "2025-07-01 18:11:04", "occupancy_level": "medium", "status": "early", "delay_seconds": -154}
{"route_id": 18041838, "route_name": "BW1 Salmia 2-Omar Al Khayam", "stop_id": 12199748438, "stop_name": "Clinique Cnss - Facult", "latitude": 37.12065448, "longitude": 6.299681825, "vehicle_id": "VEH004", "trip_id": "TRIP_6000", "timestamp": "2025-07-01 18:29:52", "speed_kmh": 20.29, "eta_next_stop": "2025-07-01 18:33:46", "occupancy_level": "high", "status": "early", "delay_seconds": -147}
{"route_id": 18041839, "route_name": "BW1 Omar Al Khayam-Salmia 2", "stop_id": 12197420852, "stop_name": "cole Le Pont", "latitude": 37.12877857, "longitude": 6.273979758, "vehicle_id": "VEH014", "trip_id": "TRIP_7986", "timestamp": "2025-07-01 18:41:07", "speed_kmh": 45.26, "eta_next_stop": "2025-07-01 18:47:51", "occupancy_level": "high", "status": "on_time", "delay_seconds": -64}
{"route_id": 18041839, "route_name": "BW1 Omar Al Khayam-Salmia 2", "stop_id": 10162043732, "stop_name": "Derb Loubila", "latitude": 37.19154309, "longitude": 6.264431897, "vehicle_id": "VEH004", "trip_id": "TRIP_8732", "timestamp": "2025-07-01 18:29:28", "speed_kmh": 11.61, "eta_next_stop": "2025-07-01 18:38:00", "occupancy_level": "low", "status": "early", "delay_seconds": 152}
{"route_id": 18041839, "route_name": "BW1 Omar Al Khayam-Salmia 2", "stop_id": 5054907924, "stop_name": "OFPPT Essafa", "latitude": 37.13282159, "longitude": 6.214125253, "vehicle_id": "VEH019", "trip_id": "TRIP_9447", "timestamp": "2025-07-01 18:07:41", "speed_kmh": 35.88, "eta_next_stop": "2025-07-01 18:14:23", "occupancy_level": "medium", "status": "delayed", "delay_seconds": 167}
{"route_id": 18056193, "route_name": "BW2 Ouled Azzouz-Oulms", "stop_id": 4591435479, "stop_name": "Attacharouk", "latitude": 37.15909557, "longitude": 6.369583682, "vehicle_id": "VEH013", "trip_id": "TRIP_4025", "timestamp": "2025-07-01 18:33:50", "speed_kmh": 42.85, "eta_next_stop": "2025-07-01 18:39:03", "occupancy_level": "low", "status": "early", "delay_seconds": 197}
{"route_id": 18056193, "route_name": "BW2 Ouled Azzouz-Oulms", "stop_id": 10162043729, "stop_name": "Promenade maritime", "latitude": 37.19110215, "longitude": 6.256295432, "vehicle_id": "VEH004", "trip_id": "TRIP_7258", "timestamp": "2025-07-01 18:33:48", "speed_kmh": 28.49, "eta_next_stop": "2025-07-01 18:43:08", "occupancy_level": "medium", "status": "on_time", "delay_seconds": 129}
{"route_id": 18056193, "route_name": "BW2 Ouled Azzouz-Oulms", "stop_id": 10171740745, "stop_name": "Doha", "latitude": 37.17908649, "longitude": 6.376007977, "vehicle_id": "VEH019", "trip_id": "TRIP_6963", "timestamp": "2025-07-01 18:16:11", "speed_kmh": 28.73, "eta_next_stop": "2025-07-01 18:19:23", "occupancy_level": "high", "status": "on_time", "delay_seconds": 90}
{"route_id": 18056194, "route_name": "BW2 Oulms-Ouled Azzouz", "stop_id": 5071835899, "stop_name": "Caf Casa Paris", "latitude": 37.12961319, "longitude": 6.217663379, "vehicle_id": "VEH016", "trip_id": "TRIP_2604", "timestamp": "2025-07-01 18:06:33", "speed_kmh": 11.24, "eta_next_stop": "2025-07-01 18:15:10", "occupancy_level": "low", "status": "on_time", "delay_seconds": -32}
{"route_id": 18056194, "route_name": "BW2 Oulms-Ouled Azzouz", "stop_id": 5081183100, "stop_name": "Messagerie CTM", "latitude": 37.15097344, "longitude": 6.248456922, "vehicle_id": "VEH014", "trip_id": "TRIP_4483", "timestamp": "2025-07-01 18:55:35", "speed_kmh": 25.84, "eta_next_stop": "2025-07-01 18:58:13", "occupancy_level": "high", "status": "early", "delay_seconds": -101}
{"route_id": 18056194, "route_name": "BW2 Oulms-Ouled Azzouz", "stop_id": 10171740759, "stop_name": "Bernoussi", "latitude": 37.20351984, "longitude": 6.387967904, "vehicle_id": "VEH005", "trip_id": "TRIP_4990", "timestamp": "2025-07-01 18:54:44", "speed_kmh": 46.9, "eta_next_stop": "2025-07-01 18:56:52", "occupancy_level": "high", "status": "delayed", "delay_seconds": 342}
{"route_id": 18093849, "route_name": "L310 Place Sraghna - Oulad Salah", "stop_id": 5025784658, "stop_name": "Al Wattassine", "latitude": 37.13283526, "longitude": 6.203517035, "vehicle_id": "VEH016", "trip_id": "TRIP_9322", "timestamp": "2025-07-01 18:32:38", "speed_kmh": 17.11, "eta_next_stop": "2025-07-01 18:37:58", "occupancy_level": "medium", "status": "on_time", "delay_seconds": 463}
{"route_id": 18093849, "route_name": "L310 Place Sraghna - Oulad Salah", "stop_id": 2422411466, "stop_name": "Htel Ibis", "latitude": 37.11533607, "longitude": 6.263671522, "vehicle_id": "VEH004", "trip_id": "TRIP_4875", "timestamp": "2025-07-01 18:55:37", "speed_kmh": 30.75, "eta_next_stop": "2025-07-01 19:01:38", "occupancy_level": "high", "status": "on_time", "delay_seconds": 211}
{"route_id": 18093849, "route_name": "L310 Place Sraghna - Oulad Salah", "stop_id": 11410363171, "stop_name": NaN, "latitude": 37.16367432, "longitude": 6.203306033, "vehicle_id": "VEH018", "trip_id": "TRIP_6048", "timestamp": "2025-07-01 18:00:35", "speed_kmh": 44.18, "eta_next_stop": "2025-07-01 18:04:49", "occupancy_level": "high", "status": "on_time", "delay_seconds": -140}
{"route_id": 18093850, "route_name": "L310 Oulad Salah-Place Sraghna", "stop_id": 2422411466, "stop_name": "Htel Ibis", "latitude": 37.11533607, "longitude": 6.263671522, "vehicle_id": "VEH003", "trip_id": "TRIP_8855", "timestamp": "2025-07-01 18:12:06", "speed_kmh": 15.47, "eta_next_stop": "2025-07-01 18:16:54", "occupancy_level": "medium", "status": "early", "delay_seconds": -93}
{"route_id": 18093850, "route_name": "L310 Oulad Salah-Place Sraghna", "stop_id": 12184341207, "stop_name": "Sidi Al Khadir", "latitude": 37.15159563, "longitude": 6.221187055, "vehicle_id": "VEH017", "trip_id": "TRIP_8241", "timestamp": "2025-07-01 18:37:25", "speed_kmh": 43.41, "eta_next_stop": "2025-07-01 18:41:08", "occupancy_level": "high", "status": "early", "delay_seconds": 373}
{"route_id": 18093850, "route_name": "L310 Oulad Salah-Place Sraghna", "stop_id": 458761729, "stop_name": "Oulmess", "latitude": 37.15488629, "longitude": 6.25486647, "vehicle_id": "VEH020", "trip_id": "TRIP_7185", "timestamp": "2025-07-01 18:02:38", "speed_kmh": 13.06, "eta_next_stop": "2025-07-01 18:04:50", "occupancy_level": "low", "status": "delayed", "delay_seconds": -73}
{"route_id": 6262065, "route_name": "L62 Moulay Youssef(Hpital Sofi) - Lahraouienne", "stop_id": 4987027260, "stop_name": "Tribunal Administratif", "latitude": 37.14292587, "longitude": 6.330741242, "vehicle_id": "VEH002", "trip_id": "TRIP_7585", "timestamp": "2025-07-01 18:24:52", "speed_kmh": 34.23, "eta_next_stop": "2025-07-01 18:35:42", "occupancy_level": "medium", "status": "early", "delay_seconds": 592}
{"route_id": 6262065, "route_name": "L62 Moulay Youssef(Hpital Sofi) - Lahraouienne", "stop_id": 12179983353, "stop_name": "Dar Lhamra", "latitude": 37.15353982, "longitude": 6.23399079, "vehicle_id": "VEH019", "trip_id": "TRIP_4525", "timestamp": "2025-07-01 18:44:45", "speed_kmh": 13.95, "eta_next_stop": "2025-07-01 18:49:34", "occupancy_level": "medium", "status": "early", "delay_seconds": 14}
{"route_id": 6262065, "route_name": "L62 Moulay Youssef(Hpital Sofi) - Lahraouienne", "stop_id": 12182135887, "stop_name": "Moulouya", "latitude": 37.13734348, "longitude": 6.222111659, "vehicle_id": "VEH002", "trip_id": "TRIP_2033", "timestamp": "2025-07-01 18:41:51", "speed_kmh": 27.07, "eta_next_stop": "2025-07-01 18:51:48", "occupancy_level": "medium", "status": "on_time", "delay_seconds": -95}
{"route_id": 6262402, "route_name": "L40 Place Oued Al Makhazine - Tacharouk", "stop_id": 10214786629, "stop_name": "Monsieur Bricolage", "latitude": 37.07899108, "longitude": 6.272150474, "vehicle_id": "VEH005", "trip_id": "TRIP_1172", "timestamp": "2025-07-01 18:21:40", "speed_kmh": 41.48, "eta_next_stop": "2025-07-01 18:23:34", "occupancy_level": "low", "status": "early", "delay_seconds": 318}
{"route_id": 6262402, "route_name": "L40 Place Oued Al Makhazine - Tacharouk", "stop_id": 5033836129, "stop_name": "Mosque Hosna Mohammed VI", "latitude": 37.12498268, "longitude": 6.316385306, "vehicle_id": "VEH014", "trip_id": "TRIP_7571", "timestamp": "2025-07-01 18:09:04", "speed_kmh": 45.5, "eta_next_stop": "2025-07-01 18:14:06", "occupancy_level": "high", "status": "on_time", "delay_seconds": -167}
{"route_id": 6262402, "route_name": "L40 Place Oued Al Makhazine - Tacharouk", "stop_id": 4208136041, "stop_name": "March Ain Choc", "latitude": 37.12848179, "longitude": 6.302388107, "vehicle_id": "VEH015", "trip_id": "TRIP_7089", "timestamp": "2025-07-01 17:58:23", "speed_kmh": 21.6, "eta_next_stop": "2025-07-01 18:07:47", "occupancy_level": "low", "status": "on_time", "delay_seconds": 176}
{"route_id": 6262519, "route_name": "L11 Daouliz - Mosque Salmia", "stop_id": 12184341201, "stop_name": "La Farandole", "latitude": 37.15974002, "longitude": 6.229497763, "vehicle_id": "VEH002", "trip_id": "TRIP_3671", "timestamp": "2025-07-01 18:01:52", "speed_kmh": 41.39, "eta_next_stop": "2025-07-01 18:04:11", "occupancy_level": "low", "status": "on_time", "delay_seconds": 105}
{"route_id": 6262519, "route_name": "L11 Daouliz - Mosque Salmia", "stop_id": 10180916744, "stop_name": "Al Madina Jadida", "latitude": 37.1374182, "longitude": 6.36085895, "vehicle_id": "VEH018", "trip_id": "TRIP_6844", "timestamp": "2025-07-01 18:11:49", "speed_kmh": 43.64, "eta_next_stop": "2025-07-01 18:16:52", "occupancy_level": "high", "status": "on_time", "delay_seconds": -114}
{"route_id": 6262519, "route_name": "L11 Daouliz - Mosque Salmia", "stop_id": 10963477175, "stop_name": "Jardin Chtaiba", "latitude": 37.14877788, "longitude": 6.326454413, "vehicle_id": "VEH004", "trip_id": "TRIP_4624", "timestamp": "2025-07-01 18:01:36", "speed_kmh": 25.27, "eta_next_stop": "2025-07-01 18:06:46", "occupancy_level": "medium", "status": "delayed", "delay_seconds": 423}
{"route_id": 6268493, "route_name": "L43 Hpital Sofi - Doha", "stop_id": 1936060936, "stop_name": "Tarik El Khir", "latitude": 37.19780695, "longitude": 6.395055773, "vehicle_id": "VEH003", "trip_id": "TRIP_2375", "timestamp": "2025-07-01 18:00:11", "speed_kmh": 16.97, "eta_next_stop": "2025-07-01 18:10:55", "occupancy_level": "medium", "status": "delayed", "delay_seconds": -36}
{"route_id": 6268493, "route_name": "L43 Hpital Sofi - Doha", "stop_id": 10177322072, "stop_name": "Chetaiba", "latitude": 37.1491053, "longitude": 6.326247683, "vehicle_id": "VEH001", "trip_id": "TRIP_9922", "timestamp": "2025-07-01 18:16:50", "speed_kmh": 10.17, "eta_next_stop": "2025-07-01 18:23:50", "occupancy_level": "low", "status": "delayed", "delay_seconds": 133}
{"route_id": 6268493, "route_name": "L43 Hpital Sofi - Doha", "stop_id": 5033704929, "stop_name": "Kora", "latitude": 37.14470005, "longitude": 6.301026371, "vehicle_id": "VEH004", "trip_id": "TRIP_1583", "timestamp": "2025-07-01 18:24:25", "speed_kmh": 10.09, "eta_next_stop": "2025-07-01 18:33:04", "occupancy_level": "medium", "status": "on_time", "delay_seconds": 172}
{"route_id": 6278638, "route_name": "L82 Sakani - Place Concorde", "stop_id": 10166999156, "stop_name": "Jnane Californie", "latitude": 37.10459014, "longitude": 6.285196998, "vehicle_id": "VEH005", "trip_id": "TRIP_4835", "timestamp": "2025-07-01 18:24:33", "speed_kmh": 32.29, "eta_next_stop": "2025-07-01 18:35:02", "occupancy_level": "high", "status": "delayed", "delay_seconds": 105}
{"route_id": 6278638, "route_name": "L82 Sakani - Place Concorde", "stop_id": 12195642079, "stop_name": "Complexe K. Zebdi", "latitude": 37.13916395, "longitude": 6.325928392, "vehicle_id": "VEH006", "trip_id": "TRIP_7017", "timestamp": "2025-07-01 17:56:45", "speed_kmh": 36.51, "eta_next_stop": "2025-07-01 18:06:55", "occupancy_level": "medium", "status": "on_time", "delay_seconds": 231}
{"route_id": 6278638, "route_name": "L82 Sakani - Place Concorde", "stop_id": 5034419571, "stop_name": "ISCAE", "latitude": 37.10547684, "longitude": 6.266379897, "vehicle_id": "VEH019", "trip_id": "TRIP_2156", "timestamp": "2025-07-01 18:54:11", "speed_kmh": 33.53, "eta_next_stop": "2025-07-01 19:01:03", "occupancy_level": "high", "status": "delayed", "delay_seconds": -295}
{"route_id": 6281643, "route_name": "L33 Place Concorde - Anassi", "stop_id": 12195642079, "stop_name": "Complexe K. Zebdi", "latitude": 37.13916395, "longitude": 6.325928392, "vehicle_id": "VEH007", "trip_id": "TRIP_3172", "timestamp": "2025-07-01 18:34:14", "speed_kmh": 32.97, "eta_next_stop": "2025-07-01 18:44:07", "occupancy_level": "low", "status": "delayed", "delay_seconds": -22}
{"route_id": 6281643, "route_name": "L33 Place Concorde - Anassi", "stop_id": 5079791361, "stop_name": "Ptisserie La Pense", "latitude": 37.16378611, "longitude": 6.248930118, "vehicle_id": "VEH002", "trip_id": "TRIP_3800", "timestamp": "2025-07-01 18:25:55", "speed_kmh": 18.44, "eta_next_stop": "2025-07-01 18:36:33", "occupancy_level": "medium", "status": "delayed", "delay_seconds": 222}
{"route_id": 6281643, "route_name": "L33 Place Concorde - Anassi", "stop_id": 12186620322, "stop_name": "Pharmacie Route Rahma", "latitude": 37.12432404, "longitude": 6.200293942, "vehicle_id": "VEH019", "trip_id": "TRIP_5312", "timestamp": "2025-07-01 18:09:24", "speed_kmh": 33.57, "eta_next_stop": "2025-07-01 18:11:32", "occupancy_level": "medium", "status": "on_time", "delay_seconds": -182}
{"route_id": 6281772, "route_name": "L56 Oliverie - Tacharouk", "stop_id": 10172577282, "stop_name": "Hay Ennaser", "latitude": 37.11394289, "longitude": 6.325206512, "vehicle_id": "VEH007", "trip_id": "TRIP_6122", "timestamp": "2025-07-01 18:36:44", "speed_kmh": 17.71, "eta_next_stop": "2025-07-01 18:39:27", "occupancy_level": "low", "status": "on_time", "delay_seconds": 418}
{"route_id": 6281772, "route_name": "L56 Oliverie - Tacharouk", "stop_id": 5034071120, "stop_name": "Coca Cola", "latitude": 37.18794162, "longitude": 6.387847582, "vehicle_id": "VEH006", "trip_id": "TRIP_5667", "timestamp": "2025-07-01 18:27:01", "speed_kmh": 43.18, "eta_next_stop": "2025-07-01 18:32:57", "occupancy_level": "low", "status": "early", "delay_seconds": 465}
{"route_id": 6281772, "route_name": "L56 Oliverie - Tacharouk", "stop_id": 5081003950, "stop_name": "Polyclinique CNSS Rabia", "latitude": 37.14975011, "longitude": 6.2366221, "vehicle_id": "VEH006", "trip_id": "TRIP_2521", "timestamp": "2025-07-01 18:22:42", "speed_kmh": 30.32, "eta_next_stop": "2025-07-01 18:24:11", "occupancy_level": "low", "status": "delayed", "delay_seconds": 78}
{"route_id": 6287029, "route_name": "L23 Cinma Rif - Mansouria", "stop_id": 2238332361, "stop_name": "Anciens Abattoirs", "latitude": 37.1770762, "longitude": 6.318955575, "vehicle_id": "VEH005", "trip_id": "TRIP_2981", "timestamp": "2025-07-01 17:57:06", "speed_kmh": 20.11, "eta_next_stop": "2025-07-01 18:01:55", "occupancy_level": "high", "status": "on_time", "delay_seconds": -247}
{"route_id": 6287029, "route_name": "L23 Cinma Rif - Mansouria", "stop_id": 12193026760, "stop_name": "Pharmacie Sidi Marouf", "latitude": 37.09090017, "longitude": 6.2490494, "vehicle_id": "VEH013", "trip_id": "TRIP_6623", "timestamp": "2025-07-01 18:40:38", "speed_kmh": 29.18, "eta_next_stop": "2025-07-01 18:41:59", "occupancy_level": "medium", "status": "early", "delay_seconds": 430}
